"","name","price","rating","votes_cnt","subzone","lat","lng","kuchnia1","n","lng_utm","lat_utm"
"1","Restauracja stary dom, Mokotów",140,4.3,313,"Mokotów",52.195412,21.023782,"Polska",1,501625.528758583,5782773.12041538
"2","Restauracja blue cactus, Mokotów",158,4.1,342,"Mokotów",52.206089,21.028308,"Meksykañska",2,501934.422763848,5783960.79849303
"3","Restauracja semolino, Mokotów",80,4.4,153,"Mokotów",52.188347,20.994736,"W³oska",2,499640.142125804,5781987.05179153
"4","Restauracja portucale, Mokotów",150,2.8,214,"Mokotów",52.196557,21.02624,"Portugalska",2,501793.489975838,5782900.53277539
"5","Restauracja mandala, Mokotów",115,4.2,96,"Mokotów",52.191169,20.9897,"Indyjska",1,499295.915380708,5782300.9697664
"6","Restauracja dom polski, Mokotów",210,4.2,42,"Mokotów",52.206215,21.032047,"Polska",1,502189.920545018,5783974.91940643
"7","Restauracja merliniego, Mokotów",230,4.1,67,"Mokotów",52.19531,21.025457,"Steak",2,501740.021036122,5782761.81417615
"8","Restauracja ma³a polana smaków, Mokotów",90,4.2,46,"Mokotów",52.20506,21.03173,"Polska",1,502168.314680489,5783846.44298965
"9","Restauracja milanovo bread wine cafe, Mokotów",40,4,55,"Mokotów",52.190213,21.024158,"Kawiarnia",2,501651.421453213,5782194.86232167
"10","Restauracja lotos, Mokotów",75,4,59,"Mokotów",52.202024,21.035886,"Polska",1,502452.487969942,5783508.89114211
"11","Restauracja galeon, Mokotów",120,3.6,69,"Mokotów",52.200951,21.028976,"Polska",3,501980.298815494,5783389.33371555
"12","Restauracja miel¿yñski, Mokotów",140,3.9,30,"Mokotów",52.204029,21.046047,"Przek¹ski",2,503146.760020724,5783732.29298335
"13","Restauracja sweet moments, Mokotów",40,3.9,29,"Mokotów",52.193912,21.023885,"Kawiarnia",3,501632.6238863,5782606.28292214
"14","Restauracja boston port, Mokotów",120,3.7,38,"Mokotów",52.197304,21.024609,"Ryby i owoce morza",1,501681.983802818,5782983.57994626
"15","Restauracja pardon tu, Mokotów",60,3.7,43,"Mokotów",52.205416,21.019204,"Przek¹ski",1,501312.322177452,5783885.73905842
"16","Restauracja locale, Mokotów",95,3.7,30,"Mokotów",52.192237,21.003946,"W³oska",2,500269.733139356,5782419.71699016
"17","Restauracja tam i z powrotem, Mokotów",60,3.7,30,"Mokotów",52.194969,21.003993,"Kawiarnia",1,500272.929143969,5782723.58801947
"18","Restauracja hamburger z karaibów, Mokotów",55,3.9,33,"Mokotów",52.190617,21.024116,"Burgery",2,501648.535424364,5782239.79685493
"19","Restauracja thailand street food, Mokotów",50,3.5,27,"Mokotów",52.201962,21.047424,"Tajska",1,503241.011813373,5783502.44807076
"20","Restauracja g³odomory, Mokotów",80,3.6,29,"Mokotów",52.206965,21.038305,"Polska",1,502617.514702265,5784058.54694386
"21","Restauracja tien tien, Mokotów",40,3.5,24,"Mokotów",52.202291,21.04169,"Azjatycka",3,502849.122503008,5783538.80084626
"22","Restauracja mistrz i ma³gorzatka, Mokotów",50,3.6,19,"Mokotów",52.212555,21.046578,"Polska",1,503182.438278415,5784680.6357704
"23","Restauracja bobby burger, Mokotów",50,3.5,38,"Mokotów",52.189211,21.007098,"Burgery",2,500485.22448325,5782083.1621114
"24","Restauracja bar mleczny wilanowski, Mokotów",40,3.4,20,"Mokotów",52.202024,21.035886,"Polska",1,502452.487969942,5783508.89114211
"25","Restauracja burger slow food, Mokotów",50,3.2,26,"Mokotów",52.190572,21.016857,"Burgery",1,501152.321687232,5782234.65148864
"26","Restauracja reforma, Mokotów",95,3.5,18,"Mokotów",52.185817,21.079724,"Europejska",2,505450.405628919,5781708.63162019
"27","Restauracja moko, Mokotów",40,3.7,17,"Mokotów",52.194755,21.023009,"Kawiarnia",1,501572.716451138,5782700.02752858
"28","Restauracja bike bistro, Mokotów",80,3.3,18,"Mokotów",52.192879,21.057461,"Burgery",2,503927.752665003,5782492.6731567
"29","Restauracja stary dom cukiernia, Mokotów",60,3.6,12,"Mokotów",52.195777,21.02377,"Desery",3,501624.695236498,5782813.71783931
"30","Restauracja czary gary, Mokotów",95,2.7,13,"Mokotów",52.192981,21.002333,"Polska",2,500159.472100639,5782502.464734
"31","Restauracja personalna, Mokotów",70,3.5,13,"Mokotów",52.202023,21.047352,"Europejska",3,503236.086818393,5783509.22968186
"32","Restauracja curry hut, Mokotów",90,3.5,14,"Mokotów",52.192864,21.008191,"Indyjska",1,500559.896872921,5782489.48028751
"33","Restauracja pomidory i oliwa, Mokotów",60,3.7,18,"Mokotów",52.193658,21.061417,"Pizza",2,504198.092052804,5782579.54023804
"34","Restauracja taco libre, Mokotów",50,3.5,14,"Mokotów",52.20994,21.02053,"Meksykañska",1,501402.79306851,5784388.95386409
"35","Restauracja gigi mokotów, Mokotów",100,3.5,12,"Mokotów",52.191322,21.013439,"Francuska",2,500918.656379406,5782318.02253662
"36","Restauracja ha noi, Mokotów",55,2.8,11,"Mokotów",52.189319,21.015782,"Chiñska",3,501078.866472349,5782095.26821035
"37","Restauracja bezownia, Mokotów",40,3.5,9,"Mokotów",52.192343,21.009995,"Desery",1,500683.21751468,5782431.54674238
"38","Restauracja przystanek mi³oœæ, Mokotów",40,NA,0,"Mokotów",52.196141,20.995362,"Kawiarnia",2,499682.992216775,5782853.94816824
"39","Restauracja sushi bar bluszczañska, Mokotów",100,2.8,10,"Mokotów",52.231924,21.006727,"Sushi",2,500459.421849992,5786833.99178822
"40","Restauracja open air, Mokotów",80,3.3,9,"Mokotów",52.203515,21.038154,"Pizza",2,502607.398268649,5783674.80926796
"41","Restauracja da aldo, Mokotów",125,3.4,10,"Mokotów",52.206965,21.038305,"W³oska",1,502617.514702265,5784058.54694386
"42","Restauracja paris minuit, Mokotów",30,3.5,7,"Mokotów",52.231581,21.055849,"Przek¹ski",1,503814.248201987,5786797.28902423
"43","Restauracja bar mleczny na czerniakowskiej, Mokotów",40,3.4,10,"Mokotów",52.21215,21.04674,"Polska",1,503193.535956668,5784635.59601289
"44","Restauracja mesa portuguesa, Mokotów",150,3.1,4,"Mokotów",52.196813,21.027016,"Portugalska",1,501846.518551986,5782929.02625501
"45","Restauracja cafe che³mska, Mokotów",35,3.3,10,"Mokotów",52.202123,21.046201,"Kawiarnia",1,503157.419152636,5783520.30160485
"46","Restauracja chiñczyk na bartyckiej, Mokotów",40,3.2,6,"Mokotów",52.211978,21.058766,"Azjatycka",1,504015.234399274,5784617.06287178
"47","Restauracja adel kebab, Mokotów",50,2.9,9,"Mokotów",52.19086,21.00125,"Kebab",1,500085.447755046,5782266.5515232
"48","Restauracja sultan kebab, Mokotów",50,3.3,10,"Mokotów",52.201962,21.047424,"Kebab",3,503241.011813373,5783502.44807076
"49","Restauracja sorelle bistro i cafe, Mokotów",100,3.4,6,"Mokotów",52.209119,21.064161,"Polska",2,504384.133508349,5784299.37788362
"50","Restauracja telepizza, Mokotów",60,2.9,7,"Mokotów",52.192714,21.011003,"Pizza",1,500752.114030416,5782472.82174906
"51","Restauracja sergio pizza, Mokotów",50,3.3,10,"Mokotów",52.231924,21.006727,"Pizza",2,500459.421849992,5786833.99178822
"52","Restauracja magiel bistro, Mokotów",110,3.3,8,"Mokotów",52.202613,21.038362,"Œródziemnomorska",3,502621.665816075,5783574.49029039
"53","Restauracja pizzeria gaga, Mokotów",90,3,4,"Mokotów",52.231924,21.006727,"W³oska",2,500459.421849992,5786833.99178822
"54","Restauracja cukiernia cieœlikowski, Mokotów",40,3,6,"Mokotów",52.20263,21.035008,"Desery",1,502392.451961631,5783576.2651775
"55","Restauracja garam masala, Mokotów",100,NA,0,"Mokotów",52.193221,21.011678,"Indyjska",1,500798.244817541,5782529.22080381
"56","Restauracja dobra szama, Mokotów",50,NA,0,"Mokotów",52.20994,21.02053,"Œródziemnomorska",2,501402.79306851,5784388.95386409
"57","Restauracja kij i marchewka, Mokotów",40,3.3,4,"Mokotów",52.18996,21.02436,"Kawiarnia",1,501665.239462864,5782166.72664858
"58","Restauracja pizzaiolo cesare, Mokotów",80,NA,0,"Mokotów",52.193515,21.013717,"Pizza",2,500937.613625824,5782561.9458028
"59","Restauracja cafe pi?terko, Mokotów",60,2.9,4,"Mokotów",52.195755,21.012732,"Kawiarnia",2,500870.241063026,5782811.08097261
"60","Restauracja bolzano pizza, Mokotów",74,2.9,6,"Mokotów",52.189492,21.000005,"Pizza",3,500000.341801511,5782114.39299583
"61","Restauracja gazeta cafe, Mokotów",40,3.2,5,"Mokotów",52.203484,21.046832,"Kawiarnia",1,503200.444502641,5783671.70878824
"62","Restauracja fort wino, Mokotów",80,3.3,7,"Mokotów",52.196141,20.995362,"Miêdzynarodowa",1,499682.992216775,5782853.94816824
"63","Restauracja tuk tuk, Mokotów",40,3.3,4,"Mokotów",52.20994,21.02053,"Tajska",2,501402.79306851,5784388.95386409
"64","Restauracja cukiernia truskawka, Mokotów",20,NA,0,"Mokotów",52.202392,21.043709,"Desery",1,502987.095536031,5783550.11599414
"65","Restauracja bon appetit, Mokotów",60,3.2,5,"Mokotów",52.190887,20.990969,"Polska",2,499382.657433944,5782269.59234009
"66","Restauracja zaœcianek, Mokotów",40,3.1,5,"Mokotów",52.193016,21.012384,"Polska",1,500846.507046582,5782506.4273753
"67","Restauracja dominos pizza, Mokotów",70,3.1,5,"Mokotów",52.195151,21.000945,"Pizza",1,500064.592283435,5782743.82415793
"68","Restauracja nice cream, Mokotów",30,3.2,4,"Mokotów",52.231924,21.006727,"Lodziarnia",1,500459.421849992,5786833.99178822
"69","Restauracja jedzonko, Mokotów",35,2.9,4,"Mokotów",52.193089,21.013238,"Polska",1,500904.880646333,5782514.55722286
"70","Restauracja don vito pizzeria, Mokotów",90,3.1,5,"Mokotów",52.209077,21.047454,"Pizza",1,503242.544108833,5784293.82764478
"71","Restauracja beefnroll, Mokotów",60,3.2,4,"Mokotów",52.20994,21.02053,"Burgery",2,501402.79306851,5784388.95386409
"72","Restauracja nice eat you, Mokotów",40,NA,0,"Mokotów",52.20994,21.02053,"Fast Food",1,501402.79306851,5784388.95386409
"73","Restauracja ale heca cafe, Mokotów",40,NA,0,"Mokotów",52.231924,21.006727,"Kawiarnia",1,500459.421849992,5786833.99178822
"74","Restauracja owoc ma moc, Mokotów",25,NA,0,"Mokotów",52.206498,21.031917,"Kawiarnia",2,502181.023184456,5784006.39266045
"75","Restauracja am pizza, Mokotów",70,NA,0,"Mokotów",52.19779,21.04724,"Pizza",2,503228.739347797,5783038.40236228
"76","Restauracja fort szel¹g, Mokotów",100,NA,0,"Mokotów",52.192801,20.99972,"Europejska",1,499980.860536423,5782482.44143454
"77","Restauracja coco lan, Mokotów",35,NA,0,"Mokotów",52.231924,21.006727,"Chiñska",3,500459.421849992,5786833.99178822
"78","Restauracja coco cafe, Mokotów",30,NA,0,"Mokotów",52.202702,21.037661,"Kawiarnia",1,502573.754213135,5783584.36435155
"79","Restauracja cafe œcianka, Mokotów",60,NA,0,"Mokotów",52.196557,21.02624,"Kawiarnia",1,501793.489975838,5782900.53277539
"80","Restauracja falafel full, Mokotów",NA,NA,0,"Mokotów",52.204037,21.010148,"Fast Food",1,500693.493946762,5783732.23213602
"81","Restauracja arte vino, Mokotów",100,NA,0,"Mokotów",52.205692,21.031441,"Œródziemnomorska",2,502148.534972895,5783916.72968582
"82","Restauracja galeria wypieków, Mokotów",30,NA,0,"Mokotów",52.193089,21.013238,"Piekarnia",2,500904.880646333,5782514.55722286
"83","Restauracja wybryk kulinarny, Mokotów",60,NA,0,"Mokotów",52.211978,21.058766,"Polska",1,504015.234399274,5784617.06287178
"84","Restauracja stop klatka, Mokotów",45,NA,0,"Mokotów",52.202346,21.046121,"Przek¹ski",1,503151.936102123,5783545.10167284
"85","Restauracja adel kebab, Mokotów",40,NA,0,"Mokotów",52.202024,21.035886,"Kebab",1,502452.487969942,5783508.89114211
"86","Restauracja wagon pub, Mokotów",50,NA,0,"Mokotów",52.197553,21.039839,"Przek¹ski",1,502722.913464632,5783011.73794005
"87","Restauracja restauracja hotel ³azienkowski, Mokotów",150,NA,0,"Mokotów",52.21499,21.04197,"Miêdzynarodowa",1,502867.440256464,5784951.28099398
"88","Restauracja kolarski cafe, Mokotów",40,NA,0,"Mokotów",52.198173,21.039309,"Kawiarnia",1,502686.651676807,5783080.67865965
"89","Restauracja bar kawowy, Mokotów",60,NA,0,"Mokotów",52.192605,20.997722,"Kawiarnia",2,499844.286107963,5782460.64344861
"90","Restauracja mili, Mokotów",40,NA,0,"Mokotów",52.19602,21.01355,"Wietnamska",2,500926.146424644,5782840.56614364
"91","Restauracja bar u kucharza, Mokotów",40,NA,0,"Mokotów",52.19602,21.01355,"Polska",1,500926.146424644,5782840.56614364
"92","Restauracja dziurka od klucza, Powiœle",115,4.5,334,"Powiœle",52.24077,21.02387,"W³oska",1,501629.882502127,5787818.15585161
"93","Restauracja na lato, Powiœle",120,3.9,170,"Powiœle",52.22778,21.03327,"W³oska",2,502272.393036716,5786373.56642618
"94","Restauracja warszawa powiœle, Powiœle",40,4.1,115,"Powiœle",52.234078,21.029895,"Przek¹ski",3,502041.586339366,5787073.97504506
"95","Restauracja mr pancake, Powiœle",50,4,219,"Powiœle",52.23639,21.02993,"Amerykañska",2,502043.870361134,5787331.13356258
"96","Restauracja sam, Powiœle",110,4.1,156,"Powiœle",52.24128,21.02302,"Zdrowe jedzenie",1,501571.825099155,5787874.86305838
"97","Restauracja veg deli, Powiœle",90,4.1,162,"Powiœle",52.24072,21.02306,"Zdrowe jedzenie",1,501574.576152367,5787812.57657337
"98","Restauracja cool cat, Powiœle",80,4.3,146,"Powiœle",52.23526,21.03294,"Miêdzynarodowa",1,502249.475417198,5787205.53584704
"99","Restauracja kafka, Powiœle",55,4,230,"Powiœle",52.23955,21.02276,"Kawiarnia",2,501554.132509812,5787682.43403941
"100","Restauracja stor, Powiœle",50,4.2,87,"Powiœle",52.23687,21.02477,"Kawiarnia",1,501691.484226628,5787384.38971158
"101","Restauracja ave pizza, Powiœle",110,4,113,"Powiœle",52.2388,21.02518,"W³oska",2,501719.407565934,5787599.0681571
"102","Restauracja nadwiœlañski œwit, Powiœle",110,3.8,61,"Powiœle",52.23781,21.03252,"Europejska",1,502220.666317744,5787489.15258565
"103","Restauracja jackpot, Powiœle",60,4.1,35,"Powiœle",52.22778,21.03327,"Drinki",2,502272.393036716,5786373.56642618
"104","Restauracja dekant winebar restaurant, Powiœle",130,4.1,35,"Powiœle",52.23808,21.02483,"Steak",3,501695.5353747,5787518.97620646
"105","Restauracja kafe zielony niedŸwiedŸ, Powiœle",180,3.9,62,"Powiœle",52.23397,21.02719,"Polska",2,501856.86126094,5787061.88975088
"106","Restauracja przek¹ski u romana, Powiœle",40,4.1,66,"Powiœle",52.23307,21.03795,"Polska",1,502591.736277363,5786962.11541646
"107","Restauracja rozbrat 20, Powiœle",100,4.3,42,"Powiœle",52.22429,21.03504,"Francuska",1,502393.474449057,5785985.44070767
"108","Restauracja viaduct, Powiœle",70,3.9,59,"Powiœle",52.23403,21.03118,"Pizza",2,502129.343725051,5787068.67310941
"109","Restauracja dyletanci, Powiœle",170,4.1,35,"Powiœle",52.22778,21.03327,"Polska",1,502272.393036716,5786373.56642618
"110","Restauracja mango vegan street food, Powiœle",50,3.7,51,"Powiœle",52.24169,21.02467,"Zdrowe jedzenie",1,501684.472971306,5787920.50337197
"111","Restauracja niena¿arty, Powiœle",80,3.6,25,"Powiœle",52.23598,21.03051,"Miêdzynarodowa",2,502083.496801382,5787285.54687464
"112","Restauracja rewers, Powiœle",45,2.6,44,"Powiœle",52.2426,21.02404,"Polska",1,501641.422859075,5788021.70588435
"113","Restauracja bez gwiazdek, Powiœle",100,3.7,17,"Powiœle",52.2419,21.02182,"Polska",1,501489.867320598,5787943.79871553
"114","Restauracja boscaiola pizzavino, Powiœle",110,3.7,48,"Powiœle",52.24222,21.02533,"Pizza",2,501729.517309922,5787979.46945795
"115","Restauracja pierogi na bednarskiej, Powiœle",50,2.9,44,"Powiœle",52.24496,21.01589,"Polska",1,501084.892915072,5788284.04941097
"116","Restauracja crepe cafe, Powiœle",45,3.7,39,"Powiœle",52.23801,21.02829,"Kawiarnia",3,501931.807132562,5787511.2768773
"117","Restauracja rabarbar, Powiœle",40,3.7,15,"Powiœle",52.24083,21.02338,"Azjatycka",2,501596.422351052,5787824.81858948
"118","Restauracja rue de paris, Powiœle",40,2.5,37,"Powiœle",52.23809,21.02876,"Kawiarnia",2,501963.897957592,5787520.18769792
"119","Restauracja mei, Powiœle",90,3.8,31,"Powiœle",52.23413,21.0345,"Koreañska",2,502356.06777521,5787079.89856845
"120","Restauracja ³owcy syren, Powiœle",60,4.2,32,"Powiœle",52.231924,21.006727,"Zdrowe jedzenie",2,500459.421849992,5786833.99178822
"121","Restauracja stara szafa, Powiœle",140,3.6,39,"Powiœle",52.23067,21.03368,"Polska",1,502300.247314421,5786695.02594061
"122","Restauracja cho cho san, Powiœle",100,3.8,27,"Powiœle",52.2388,21.02518,"Sushi",2,501719.407565934,5787599.0681571
"123","Restauracja pizza boyz, Powiœle",40,3.4,28,"Powiœle",52.23628,21.02958,"Pizza",1,502019.974432138,5787318.88874417
"124","Restauracja makkaron, Powiœle",50,3.8,32,"Powiœle",52.23531,21.02948,"W³oska",1,502013.189464707,5787210.99546474
"125","Restauracja parowóz, Powiœle",40,3.8,18,"Powiœle",52.23684,21.02855,"Chiñska",2,501949.612721284,5787381.14784262
"126","Restauracja syrenka, Powiœle",60,3.3,26,"Powiœle",52.23787,21.02779,"Burgery",3,501897.670171442,5787495.69183757
"127","Restauracja grande pierogi, Powiœle",50,2.4,29,"Powiœle",52.23413,21.0345,"Polska",1,502356.06777521,5787079.89856845
"128","Restauracja przystanek powiœle, Powiœle",50,3.4,12,"Powiœle",52.24083,21.02265,"Kawiarnia",2,501546.5768292,5787824.80276
"129","Restauracja heritage shop wine, Powiœle",80,3.6,20,"Powiœle",52.23748,21.02746,"W³oska",1,501875.152201062,5787452.30458066
"130","Restauracja kawiarnia fabryczna, Powiœle",40,3.8,19,"Powiœle",52.22429,21.03588,"Kawiarnia",1,502450.852259349,5785985.46877591
"131","Restauracja palce lizaæ, Powiœle",50,3.4,16,"Powiœle",52.22386,21.0352,"Kawiarnia",1,502404.426780639,5785937.61835281
"132","Restauracja fenomenalna, Powiœle",60,2.6,25,"Powiœle",52.2426,21.02404,"Kawiarnia",2,501641.422859075,5788021.70588435
"133","Restauracja kuchnia warszawska, Powiœle",95,3.3,13,"Powiœle",52.23781,21.03252,"Polska",1,502220.666317744,5787489.15258565
"134","Restauracja g³?bokie gard³o, Powiœle",50,2.7,25,"Powiœle",52.24496,21.01589,"Przek¹ski",1,501084.892915072,5788284.04941097
"135","Restauracja el botellón cantina y cóctel bar, Powiœle",100,3.5,10,"Powiœle",52.23237,21.03722,"Polska",1,502541.9220458,5786884.23048481
"136","Restauracja qchnia, Powiœle",50,3.5,14,"Powiœle",52.13195,20.92782,"Chiñska",1,495059.386251529,5775716.68917122
"137","Restauracja charlie cafe, Powiœle",50,3.3,12,"Powiœle",52.234087,21.034238,"Kawiarnia",1,502338.177578337,5787075.10731075
"138","Restauracja bliss, Powiœle",118,3.4,22,"Powiœle",52.24642,21.01613,"Chiñska",1,501101.242816997,5788446.44519082
"139","Restauracja pomost 511, Powiœle",32,3.5,13,"Powiœle",52.231924,21.006727,"Drinki",1,500459.421849992,5786833.99178822
"140","Restauracja fabryka lodów tradycyjnych, Powiœle",20,3,15,"Powiœle",52.23698,21.02522,"Desery",2,501722.209395432,5787396.63531662
"141","Restauracja pod bary³k¹, Powiœle",90,3.2,15,"Powiœle",52.24646,21.01767,"Przek¹ski",1,501206.382087093,5788450.91881153
"142","Restauracja before, Powiœle",50,3.5,14,"Powiœle",52.24483,21.01498,"Polska",2,501022.765473141,5788269.57660385
"143","Restauracja sen nocy letniej, Powiœle",60,3.1,8,"Powiœle",52.231924,21.006727,"Grill",2,500459.421849992,5786833.99178822
"144","Restauracja bong sen, Powiœle",50,3,13,"Powiœle",52.23237,21.03722,"Wietnamska",1,502541.9220458,5786884.23048481
"145","Restauracja da grasso, Powiœle",80,2.9,9,"Powiœle",52.23413,21.0345,"Pizza",1,502356.06777521,5787079.89856845
"146","Restauracja da gusto, Powiœle",124,3.3,17,"Powiœle",52.223,21.03758,"W³oska",2,502567.048402933,5785842.04467681
"147","Restauracja cafe 7, Powiœle",50,3.4,6,"Powiœle",52.23672,21.0302,"Polska",2,502062.292921066,5787367.84623023
"148","Restauracja wrapeat, Powiœle",35,3.4,10,"Powiœle",52.241339,21.023357,"Zdrowe jedzenie",1,501594.833629282,5787881.43283895
"149","Restauracja batida, Powiœle",45,2.9,9,"Powiœle",52.24191,21.02713,"Kawiarnia",2,501852.433143416,5787945.03343623
"150","Restauracja qki, Powiœle",50,3.4,9,"Powiœle",52.23904,21.02423,"Desery",3,501654.528221716,5787625.7406145
"151","Restauracja heritage birreria artigianale, Powiœle",50,3.4,10,"Powiœle",52.23801,21.02806,"Drinki",2,501916.101383831,5787511.2707716
"152","Restauracja dwa wo³y, Powiœle",70,3.5,11,"Powiœle",52.22273,21.03571,"Amerykañska",2,502439.325561179,5785811.94879385
"153","Restauracja poniatowski bistro, Powiœle",45,2.9,8,"Powiœle",52.23413,21.0345,"Polska",2,502356.06777521,5787079.89856845
"154","Restauracja wiem bistro, Powiœle",45,2.8,8,"Powiœle",52.24189,21.02807,"Polska",3,501916.617090953,5787942.8333312
"155","Restauracja gor¹co polecam nowakowski, Powiœle",20,3.3,10,"Powiœle",52.2426,21.02404,"Piekarnia",2,501641.422859075,5788021.70588435
"156","Restauracja mins onigiri, Powiœle",30,3.3,7,"Powiœle",52.24169,21.02467,"Azjatycka",1,501684.472971306,5787920.50337197
"157","Restauracja coffee mariensztat, Powiœle",40,3.1,4,"Powiœle",52.24626,21.01768,"Kawiarnia",1,501207.07024339,5788428.67347422
"158","Restauracja connect, Powiœle",40,NA,0,"Powiœle",52.2388,21.02518,"Polska",2,501719.407565934,5787599.0681571
"159","Restauracja costa coffee, Powiœle",40,3.1,4,"Powiœle",52.2426,21.02404,"Kawiarnia",1,501641.422859075,5788021.70588435
"160","Restauracja syreni œpiew, Powiœle",60,3.1,9,"Powiœle",52.22799,21.03416,"Drinki",1,502333.170419146,5786396.95240553
"161","Restauracja monta bistro bar, Powiœle",80,NA,0,"Powiœle",52.22615,21.045,"Miêdzynarodowa",1,503073.682901199,5786192.69874153
"162","Restauracja retrospekcja, Powiœle",40,3,5,"Powiœle",52.24483,21.01498,"Kawiarnia",2,501022.765473141,5788269.57660385
"163","Restauracja minar kebab, Powiœle",40,NA,0,"Powiœle",52.23237,21.03722,"Kebab",1,502541.9220458,5786884.23048481
"164","Restauracja cukiernia piast, Powiœle",40,NA,0,"Powiœle",52.234087,21.034238,"Desery",2,502338.177578337,5787075.10731075
"165","Restauracja ma³pi biznes, Powiœle",40,NA,0,"Powiœle",52.21683,20.96314,"Kawiarnia",3,497481.785056778,5785155.74875062
"166","Restauracja syty garnek, Powiœle",60,NA,0,"Powiœle",52.23413,21.0345,"Gruziñska",1,502356.06777521,5787079.89856845
"167","Restauracja pub pod mosteczkiem, Powiœle",40,3.2,4,"Powiœle",52.23319,21.03966,"Polska",2,502708.51076208,5786975.52521205
"168","Restauracja ekspres powiœle, Powiœle",30,3.1,4,"Powiœle",52.22283,21.03666,"Kawiarnia",1,502504.213781143,5785823.10389395
"169","Restauracja zdrowo nadziane, Powiœle",60,NA,0,"Powiœle",52.2426,21.02404,"Polska",2,501641.422859075,5788021.70588435
"170","Restauracja sok bar, Powiœle",40,NA,0,"Powiœle",52.23759,21.02614,"Kawiarnia",2,501785.009373724,5787464.50625772
"171","Restauracja c cafe, Powiœle",40,NA,0,"Powiœle",52.2388,21.02518,"Kawiarnia",2,501719.407565934,5787599.0681571
"172","Restauracja via solec, Powiœle",40,NA,0,"Powiœle",52.23413,21.0345,"Kawiarnia",2,502356.06777521,5787079.89856845
"173","Restauracja m¹ka i woda, Œródmieœcie Pó³nocne",115,4.3,693,"Œródmieœcie pó³nocne",52.232419,21.016844,"W³oska",2,501150.351649469,5786889.16162564
"174","Restauracja shipudei berek, Œródmieœcie Pó³nocne",100,4.6,640,"Œródmieœcie pó³nocne",52.236386,21.010688,"Izraelska",1,500729.865973917,5787330.32044894
"175","Restauracja aioli, Œródmieœcie Pó³nocne",110,4.3,862,"Œródmieœcie pó³nocne",52.236013,21.0112,"Pizza",3,500764.836024498,5787288.83793537
"176","Restauracja manekin, Œródmieœcie Pó³nocne",50,4,501,"Œródmieœcie pó³nocne",52.237778,21.007508,"Europejska",1,500512.69295558,5787485.1216525
"177","Restauracja barn burger, Œródmieœcie Pó³nocne",70,4.4,690,"Œródmieœcie pó³nocne",52.232768,21.011773,"Amerykañska",2,500804.024209673,5786927.91157095
"178","Restauracja der elefant, Œródmieœcie Pó³nocne",130,4.5,498,"Œródmieœcie pó³nocne",52.241969,21.003389,"Ryby i owoce morza",4,500231.400208436,5787951.2545301
"179","Restauracja thaisty, Œródmieœcie Pó³nocne",130,4.6,604,"Œródmieœcie pó³nocne",52.243014,21.003439,"Tajska",1,500234.808682249,5788067.48737315
"180","Restauracja momu, Œródmieœcie Pó³nocne",110,4.1,392,"Œródmieœcie pó³nocne",52.243647,21.008371,"Europejska",2,500571.548563283,5788137.92179602
"181","Restauracja alchemist gastropub, Œródmieœcie Pó³nocne",120,4.4,213,"Œródmieœcie pó³nocne",52.241071,21.012422,"Burgery",4,500848.188670688,5787851.43958025
"182","Restauracja spacca napoli, Œródmieœcie Pó³nocne",105,4.4,264,"Œródmieœcie pó³nocne",52.234693,21.004599,"Pizza",2,500314.070109332,5787141.96875224
"183","Restauracja s³oik, Œródmieœcie Pó³nocne",100,3.9,375,"Œródmieœcie pó³nocne",52.232333,21.011331,"Polska",1,500773.845865249,5786879.52290255
"184","Restauracja dos tacos, Œródmieœcie Pó³nocne",95,4.3,332,"Œródmieœcie pó³nocne",52.236165,21.010695,"Meksykañska",1,500730.347619756,5787305.73927978
"185","Restauracja du za mi ha, Œródmieœcie Pó³nocne",60,3.8,190,"Œródmieœcie pó³nocne",52.232873,21.012215,"Wietnamska",3,500834.208149821,5786939.59542876
"186","Restauracja si, Œródmieœcie Pó³nocne",100,4.2,224,"Œródmieœcie pó³nocne",52.241105,21.002971,"W³oska",1,500202.863195897,5787855.15277905
"187","Restauracja brooklyn restaurant bar, Œródmieœcie Pó³nocne",80,4,188,"Œródmieœcie pó³nocne",52.233797,20.998626,"Burgery",3,499906.166336348,5787042.30002459
"188","Restauracja mi³oœæ, Œródmieœcie Pó³nocne",90,4,145,"Œródmieœcie pó³nocne",52.23767,21.010037,"Europejska",2,500685.390474511,5787473.13000141
"189","Restauracja mi?dzy bu³kami, Œródmieœcie Pó³nocne",80,4,221,"Œródmieœcie pó³nocne",52.230469,21.015861,"Burgery",1,501083.265671948,5786672.25336788
"190","Restauracja el greco, Œródmieœcie Pó³nocne",130,4,244,"Œródmieœcie pó³nocne",52.235801,20.99919,"Grecka",2,499944.685702467,5787265.19895619
"191","Restauracja informal kitchen, Œródmieœcie Pó³nocne",120,4.1,130,"Œródmieœcie pó³nocne",52.23889,21.01285,"Europejska",4,500877.456023079,5787608.8577188
"192","Restauracja loft, Œródmieœcie Pó³nocne",100,3.9,116,"Œródmieœcie pó³nocne",52.232333,21.011331,"Europejska",3,500773.845865249,5786879.52290255
"193","Restauracja kieliszki na pró¿nej, Œródmieœcie Pó³nocne",140,4.3,71,"Œródmieœcie pó³nocne",52.236472,21.004803,"Europejska",1,500327.988351568,5787339.8430512
"194","Restauracja el popo, Œródmieœcie Pó³nocne",130,3.7,254,"Œródmieœcie pó³nocne",52.24355,21.007271,"Meksykañska",1,500496.444709838,5788127.12462619
"195","Restauracja paros, Œródmieœcie Pó³nocne",120,4.3,148,"Œródmieœcie pó³nocne",52.235079,21.011974,"Œródziemnomorska",2,500817.708819835,5787184.96007338
"196","Restauracja sketch w teatrze wielkim, Œródmieœcie Pó³nocne",120,4.3,121,"Œródmieœcie pó³nocne",52.243102,21.011612,"Miêdzynarodowa",1,500792.844728249,5788077.33333777
"197","Restauracja opas³y tom, Œródmieœcie Pó³nocne",150,4.2,162,"Œródmieœcie pó³nocne",52.233567,21.02081,"Europejska",3,501421.170758492,5787016.92088192
"198","Restauracja bordo, Œródmieœcie Pó³nocne",100,2.7,243,"Œródmieœcie pó³nocne",52.231954,21.01211,"W³oska",1,500827.054384703,5786837.37637763
"199","Restauracja spring roll, Œródmieœcie Pó³nocne",80,4.2,184,"Œródmieœcie pó³nocne",52.232824,21.014532,"Tajska",3,500992.44585931,5786934.17448963
"200","Restauracja st antonio, Œródmieœcie Pó³nocne",120,3.8,174,"Œródmieœcie pó³nocne",52.242247,21.004367,"W³oska",1,500298.175979789,5787982.17933171
"201","Restauracja ceviche bar, Œródmieœcie Pó³nocne",170,4.5,94,"Œródmieœcie pó³nocne",52.234371,20.999479,"Ryby i owoce morza",2,499964.420154158,5787106.14372625
"202","Restauracja frida, Œródmieœcie Pó³nocne",135,3.3,215,"Œródmieœcie pó³nocne",52.233785,21.019399,"Meksykañska",2,501324.803292165,5787041.14169971
"203","Restauracja mela verde, Œródmieœcie Pó³nocne",110,3.8,186,"Œródmieœcie pó³nocne",52.233079,21.017698,"W³oska",1,501208.657180859,5786962.58551565
"204","Restauracja p?dz¹cy królik, Œródmieœcie Pó³nocne",140,3.9,100,"Œródmieœcie pó³nocne",52.244466,21.011453,"Europejska",2,500781.9645413,5788229.04588074
"205","Restauracja thai me up, Œródmieœcie Pó³nocne",140,4.4,80,"Œródmieœcie pó³nocne",52.233774,21.020622,"Tajska",1,501408.325183113,5787039.94125884
"206","Restauracja besuto sushi, Œródmieœcie Pó³nocne",150,4,179,"Œródmieœcie pó³nocne",52.232824,21.01942,"Sushi",2,501326.266071249,5786934.25267591
"207","Restauracja sawa bistro, Œródmieœcie Pó³nocne",130,4.4,82,"Œródmieœcie pó³nocne",52.236357,21.00166,"Miêdzynarodowa",1,500113.35874888,5787327.04233832
"208","Restauracja cô tú, Œródmieœcie Pó³nocne",55,4,134,"Œródmieœcie pó³nocne",52.233,21.02021,"Wietnamska",3,501380.212733536,5786953.84342412
"209","Restauracja charlotte, Œródmieœcie Pó³nocne",60,3.9,121,"Œródmieœcie pó³nocne",52.235767,21.004431,"Piekarnia",3,500302.589925416,5787261.42616788
"210","Restauracja ed red, Œródmieœcie Pó³nocne",120,4.2,83,"Œródmieœcie pó³nocne",52.238844,20.996843,"Polska",1,499784.425561538,5787603.66816593
"211","Restauracja tamka 43, Œródmieœcie Pó³nocne",300,4.1,80,"Œródmieœcie pó³nocne",52.236443,21.022329,"Europejska",1,501524.808792665,5787336.84147738
"212","Restauracja yugo, Œródmieœcie Pó³nocne",60,4.1,106,"Œródmieœcie pó³nocne",52.231538,21.018732,"Ba³kañska",1,501279.316887512,5786791.20206579
"213","Restauracja nowa pró¿na, Œródmieœcie Pó³nocne",190,4.3,47,"Œródmieœcie pó³nocne",52.236627,21.004959,"Europejska",1,500338.640135266,5787357.08400547
"214","Restauracja hard rock cafe, Œródmieœcie Pó³nocne",150,3.5,145,"Œródmieœcie pó³nocne",52.23065,21.00231,"Amerykañska",2,500157.766441802,5786692.26948544
"215","Restauracja oliva, Œródmieœcie Pó³nocne",135,4.2,97,"Œródmieœcie pó³nocne",52.235946,21.019732,"Œródziemnomorska",3,501347.479206127,5787281.51003608
"216","Restauracja pianka drink food, Œródmieœcie Pó³nocne",100,4.1,75,"Œródmieœcie pó³nocne",52.233638,21.011458,"Przek¹ski",2,500782.496330273,5787024.67584877
"217","Restauracja sueno tapas bar, Œródmieœcie Pó³nocne",110,4.1,104,"Œródmieœcie pó³nocne",52.238994,21.020021,"Hiszpañska",2,501367.121083466,5787620.53641217
"218","Restauracja èeská, Œródmieœcie Pó³nocne",70,3.6,108,"Œródmieœcie pó³nocne",52.231675,21.011977,"Czeska",1,500817.976256394,5786806.34246722
"219","Restauracja trattoria rucola, Œródmieœcie Pó³nocne",130,4,172,"Œródmieœcie pó³nocne",52.245997,21.013048,"W³oska",2,500890.834032052,5788399.35358987
"220","Restauracja elixir by dom wódki, Œródmieœcie Pó³nocne",180,4.4,78,"Œródmieœcie pó³nocne",52.243647,21.008371,"Polska",1,500571.548563283,5788137.92179602
"221","Restauracja onggi, Œródmieœcie Pó³nocne",100,4.1,53,"Œródmieœcie pó³nocne",52.243868,21.01165,"Koreañska",1,500795.425597607,5788162.53399269
"222","Restauracja mango vegan street food, Œródmieœcie Pó³nocne",50,3.9,102,"Œródmieœcie pó³nocne",52.232212,21.017237,"Zdrowe jedzenie",1,501177.19684206,5786866.14389442
"223","Restauracja inny wymiar, Œródmieœcie Pó³nocne",100,4.2,56,"Œródmieœcie pó³nocne",52.236502,21.013873,"Polska",2,500947.361924589,5787343.25967266
"224","Restauracja ê ryb?, Œródmieœcie Pó³nocne",50,3.9,77,"Œródmieœcie pó³nocne",52.233797,20.998626,"Ryby i owoce morza",1,499906.166336348,5787042.30002459
"225","Restauracja toan pho, Œródmieœcie Pó³nocne",50,4.1,95,"Œródmieœcie pó³nocne",52.227629,20.9934,"Wietnamska",2,499549.208141795,5786356.27014118
"226","Restauracja bollywood lounge, Œródmieœcie Pó³nocne",150,3.9,109,"Œródmieœcie pó³nocne",52.235375,21.018827,"Indyjska",1,501285.69412938,5787217.98279875
"227","Restauracja akashia, Œródmieœcie Pó³nocne",120,4.2,99,"Œródmieœcie pó³nocne",52.23185,21.00182,"Sushi",2,500124.297481455,5786825.7412129
"228","Restauracja mercato, Œródmieœcie Pó³nocne",140,3.7,71,"Œródmieœcie pó³nocne",52.236279,21.004943,"W³oska",1,500337.550167336,5787318.37681909
"229","Restauracja mexican, Œródmieœcie Pó³nocne",85,2.5,130,"Œródmieœcie pó³nocne",52.232856,21.013995,"Meksykañska",1,500955.771388424,5786937.72654493
"230","Restauracja u rysia, Œródmieœcie Pó³nocne",100,4.2,57,"Œródmieœcie pó³nocne",52.237778,21.007508,"Polska",1,500512.69295558,5787485.1216525
"231","Restauracja la cantina, Œródmieœcie Pó³nocne",120,3.8,58,"Œródmieœcie pó³nocne",52.236369,21.018373,"Œródziemnomorska",2,501254.662483543,5787328.53479858
"232","Restauracja manoush, Œródmieœcie Pó³nocne",130,3.9,43,"Œródmieœcie pó³nocne",52.234603,21.01193,"Miêdzynarodowa",1,500814.712758541,5787132.01538233
"233","Restauracja marconi hotel bristol, Œródmieœcie Pó³nocne",300,4.3,49,"Œródmieœcie pó³nocne",52.24226,21.01563,"Miêdzynarodowa",1,501067.206134405,5787983.73138867
"234","Restauracja giovanni rubino, Œródmieœcie Pó³nocne",100,2.1,108,"Œródmieœcie pó³nocne",52.244294,21.013868,"W³oska",2,500946.854638984,5788209.94356006
"235","Restauracja jacks cinema, Œródmieœcie Pó³nocne",110,4.2,45,"Œródmieœcie pó³nocne",52.231586,21.01751,"Amerykañska",1,501195.858133292,5786796.52010805
"236","Restauracja le cedre lounge, Œródmieœcie Pó³nocne",110,4.3,51,"Œródmieœcie pó³nocne",52.236713,21.000544,"Libañska",1,500037.14859399,5787366.63811055
"237","Restauracja hops, Œródmieœcie Pó³nocne",120,4.2,37,"Œródmieœcie pó³nocne",52.23304,21.01837,"Europejska",2,501254.551467023,5786958.25907114
"238","Restauracja pho, Œródmieœcie Pó³nocne",40,4,55,"Œródmieœcie pó³nocne",52.231283,21.013854,"Wietnamska",2,500946.175408197,5786762.76423259
"239","Restauracja buddha, Œródmieœcie Pó³nocne",120,3.6,128,"Œródmieœcie pó³nocne",52.23265,21.01966,"Indyjska",1,501342.661838561,5786914.90355131
"240","Restauracja asia tasty, Œródmieœcie Pó³nocne",50,3.6,100,"Œródmieœcie pó³nocne",52.239369,21.000057,"Azjatycka",4,500003.892175485,5787662.05784827
"241","Restauracja senses, Œródmieœcie Pó³nocne",500,4,52,"Œródmieœcie pó³nocne",52.24504,21.005637,"Europejska",2,500384.866606733,5788292.84363738
"242","Restauracja warsaw potato, Œródmieœcie Pó³nocne",40,3.7,54,"Œródmieœcie pó³nocne",52.235676,21.018102,"Polska",2,501236.175583426,5787251.44960686
"243","Restauracja bubbles, Œródmieœcie Pó³nocne",120,4.2,65,"Œródmieœcie pó³nocne",52.241071,21.012422,"Polska",2,500848.188670688,5787851.43958025
"244","Restauracja fenicja, Œródmieœcie Pó³nocne",120,2.7,55,"Œródmieœcie pó³nocne",52.234548,21.003912,"Arabska",2,500267.155092683,5787125.8380394
"245","Restauracja fit green, Œródmieœcie Pó³nocne",60,3.9,56,"Œródmieœcie pó³nocne",52.239403,21.01516,"Zdrowe jedzenie",1,501035.181317139,5787665.94784762
"246","Restauracja ti amo, Œródmieœcie Pó³nocne",110,3.7,67,"Œródmieœcie pó³nocne",52.233962,21.000842,"W³oska",1,500057.501930025,5787060.65197103
"247","Restauracja browarmia, Œródmieœcie Pó³nocne",90,2.3,117,"Œródmieœcie pó³nocne",52.240502,21.016034,"Polska",2,501094.83425077,5787788.19960169
"248","Restauracja stara kamienica, Œródmieœcie Pó³nocne",150,4,79,"Œródmieœcie pó³nocne",52.231523,21.015106,"Polska",2,501031.676673402,5786789.4758514
"249","Restauracja labor, Œródmieœcie Pó³nocne",50,3.9,35,"Œródmieœcie pó³nocne",52.23256,21.014125,"Wêgierska",1,500964.655995329,5786904.80499795
"250","Restauracja borpince, Œródmieœcie Pó³nocne",170,3.9,66,"Œródmieœcie pó³nocne",52.23256,21.014125,"Wêgierska",1,500964.655995329,5786904.80499795
"251","Restauracja beefnroll, Œródmieœcie Pó³nocne",60,3.9,62,"Œródmieœcie pó³nocne",52.234035,21.019304,"Burgery",2,501318.308112937,5787068.94678824
"252","Restauracja vega, Œródmieœcie Pó³nocne",50,2.6,84,"Œródmieœcie pó³nocne",52.241234,20.995293,"Zdrowe jedzenie",1,499678.601718547,5787869.50739562
"253","Restauracja cesarski pa³ac, Œródmieœcie Pó³nocne",140,3.8,92,"Œródmieœcie pó³nocne",52.24355,21.007271,"Chiñska",2,500496.444709838,5788127.12462619
"254","Restauracja pizza eataliano, Œródmieœcie Pó³nocne",40,2.8,83,"Œródmieœcie pó³nocne",52.234391,21.019113,"Pizza",2,501305.253905606,5787108.54024612
"255","Restauracja san lorenzo, Œródmieœcie Pó³nocne",160,4,58,"Œródmieœcie pó³nocne",52.240594,20.995405,"W³oska",1,499686.244667932,5787798.32135784
"256","Restauracja zapiecek, Œródmieœcie Pó³nocne",80,3.8,62,"Œródmieœcie pó³nocne",52.231682,21.019444,"Polska",1,501327.939198512,5786807.23159413
"257","Restauracja injachi, Œródmieœcie Pó³nocne",110,3.9,71,"Œródmieœcie pó³nocne",52.230702,21.013343,"Indyjska",1,500911.287951882,5786698.13466526
"258","Restauracja kiku sushi, Œródmieœcie Pó³nocne",150,3.3,75,"Œródmieœcie pó³nocne",52.245085,21.011251,"Sushi",2,500768.162108694,5788297.89353656
"259","Restauracja cava, Œródmieœcie Pó³nocne",70,3.7,70,"Œródmieœcie pó³nocne",52.233097,21.019767,"Kawiarnia",2,501349.955746818,5786964.62412549
"260","Restauracja vege bistro, Œródmieœcie Pó³nocne",60,3.7,25,"Œródmieœcie pó³nocne",52.236503,21.020271,"Zdrowe jedzenie",1,501384.269666888,5787343.4738149
"261","Restauracja otosushi, Œródmieœcie Pó³nocne",140,3.9,71,"Œródmieœcie pó³nocne",52.234665,21.018962,"Sushi",2,501294.933928008,5787139.01381627
"262","Restauracja kebab king, Œródmieœcie Pó³nocne",40,2.7,72,"Œródmieœcie pó³nocne",52.230779,21.014594,"Kebab",1,500996.725875348,5786706.71562714
"263","Restauracja benihana, Œródmieœcie Pó³nocne",140,3.8,56,"Œródmieœcie pó³nocne",52.235497,21.001596,"Japoñska",2,500108.990397506,5787231.3867426
"264","Restauracja sardynia, Œródmieœcie Pó³nocne",100,3.9,25,"Œródmieœcie pó³nocne",52.231924,21.006727,"W³oska",1,500459.421849992,5786833.99178822
"265","Restauracja thai thai, Œródmieœcie Pó³nocne",170,4,56,"Œródmieœcie pó³nocne",52.243895,21.009863,"Tajska",2,500673.414412992,5788165.51902454
"266","Restauracja casa pablo, Œródmieœcie Pó³nocne",180,3.8,51,"Œródmieœcie pó³nocne",52.236713,21.000544,"Hiszpañska",2,500037.14859399,5787366.63811055
"267","Restauracja kik fit bar, Œródmieœcie Pó³nocne",45,3.9,55,"Œródmieœcie pó³nocne",52.232988,21.014598,"Zdrowe jedzenie",1,500996.949577775,5786952.41666679
"268","Restauracja 7th street, Œródmieœcie Pó³nocne",110,2.6,44,"Œródmieœcie pó³nocne",52.23489,21.00559,"Amerykañska",2,500381.744757271,5787163.88528754
"269","Restauracja dawne smaki, Œródmieœcie Pó³nocne",160,3.8,40,"Œródmieœcie pó³nocne",52.235071,21.018303,"Polska",1,501249.918755959,5787184.16053111
"270","Restauracja amrit kebab, Œródmieœcie Pó³nocne",40,3.6,63,"Œródmieœcie pó³nocne",52.241946,20.994343,"Kebab",2,499613.741028168,5787948.70596396
"271","Restauracja saint jacques, Œródmieœcie Pó³nocne",130,3.8,48,"Œródmieœcie pó³nocne",52.233962,21.000842,"Francuska",1,500057.501930025,5787060.65197103
"272","Restauracja bistro de paris, Œródmieœcie Pó³nocne",270,4,42,"Œródmieœcie pó³nocne",52.241071,21.012422,"Francuska",1,500848.188670688,5787851.43958025
"273","Restauracja ceprownia, Œródmieœcie Pó³nocne",80,3.7,57,"Œródmieœcie pó³nocne",52.240069,21.016356,"Polska",1,501116.831937272,5787740.04304893
"274","Restauracja leonardo verde, Œródmieœcie Pó³nocne",NA,4,38,"Œródmieœcie pó³nocne",52.224828,21.011792,"W³oska",1,500805.465467854,5786044.76791695
"275","Restauracja specja³y regionalne, Œródmieœcie Pó³nocne",120,3.7,53,"Œródmieœcie pó³nocne",52.234594,21.018991,"Polska",1,501296.916436208,5787131.11719674
"276","Restauracja sol y sombra tapas bar, Œródmieœcie Pó³nocne",90,4,55,"Œródmieœcie pó³nocne",52.231924,21.006727,"Hiszpañska",2,500459.421849992,5786833.99178822
"277","Restauracja basico, Œródmieœcie Pó³nocne",127,4,42,"Œródmieœcie pó³nocne",52.232662,21.013717,"Europejska",3,500936.789802624,5786916.14482662
"278","Restauracja falafel bejrut, Œródmieœcie Pó³nocne",35,4.1,36,"Œródmieœcie pó³nocne",52.244466,21.011453,"Arabska",2,500781.9645413,5788229.04588074
"279","Restauracja hoppiness beer food, Œródmieœcie Pó³nocne",70,4,54,"Œródmieœcie pó³nocne",52.231878,21.013338,"Europejska",2,500910.922396111,5786828.93782971
"280","Restauracja gruzja, Œródmieœcie Pó³nocne",100,3.5,59,"Œródmieœcie pó³nocne",52.233022,21.018369,"Gruziñska",1,501254.483680933,5786956.25696304
"281","Restauracja restaurant city 24, Œródmieœcie Pó³nocne",100,3.6,58,"Œródmieœcie pó³nocne",52.232611,21.022953,"Amerykañska",1,501567.555652752,5786910.63179845
"282","Restauracja chianti, Œródmieœcie Pó³nocne",150,3.8,56,"Œródmieœcie pó³nocne",52.233567,21.02081,"W³oska",1,501421.170758492,5787016.92088192
"283","Restauracja dim sum house, Œródmieœcie Pó³nocne",80,2.8,40,"Œródmieœcie pó³nocne",52.233289,21.018999,"Azjatycka",2,501297.500813934,5786985.96573485
"284","Restauracja pekin, Œródmieœcie Pó³nocne",110,3.7,50,"Œródmieœcie pó³nocne",52.24355,21.007271,"Chiñska",1,500496.444709838,5788127.12462619
"285","Restauracja sphinx, Œródmieœcie Pó³nocne",100,2.2,60,"Œródmieœcie pó³nocne",52.232624,21.014946,"Arabska",3,501020.724089749,5786911.93478694
"286","Restauracja kavos, Œródmieœcie Pó³nocne",120,4,27,"Œródmieœcie pó³nocne",52.236569,21.010458,"Œródziemnomorska",2,500714.156714467,5787350.67275956
"287","Restauracja zushi point, Œródmieœcie Pó³nocne",130,3.8,36,"Œródmieœcie pó³nocne",52.234522,21.003787,"Sushi",2,500258.618846401,5787122.94567631
"288","Restauracja harenda, Œródmieœcie Pó³nocne",90,2.3,72,"Œródmieœcie pó³nocne",52.238936,21.018952,"Polska",2,501294.126795005,5787614.0655973
"289","Restauracja british bulldog pub, Œródmieœcie Pó³nocne",70,3.5,46,"Œródmieœcie pó³nocne",52.230779,21.014594,"Steak",2,500996.725875348,5786706.71562714
"290","Restauracja handroll, Œródmieœcie Pó³nocne",50,3.8,51,"Œródmieœcie pó³nocne",52.238548,21.019149,"Sushi",1,501307.590233154,5787570.91291199
"291","Restauracja kameralna, Œródmieœcie Pó³nocne",140,3.7,28,"Œródmieœcie pó³nocne",52.234268,21.021017,"Polska",2,501435.284734566,5787094.89528619
"292","Restauracja panorama sky bar warsaw marriott hotel, Œródmieœcie Pó³nocne",280,4,47,"Œródmieœcie pó³nocne",52.22769,21.00363,"Miêdzynarodowa",1,500247.935182327,5786363.04068347
"293","Restauracja kumpir house, Œródmieœcie Pó³nocne",50,3.9,24,"Œródmieœcie pó³nocne",52.245218,21.013589,"Turecka",1,500927.786301405,5788312.71415151
"294","Restauracja bar mleczny familijny, Œródmieœcie Pó³nocne",25,2.7,43,"Œródmieœcie pó³nocne",52.234094,21.018791,"Polska",1,501283.272633275,5787075.49999118
"295","Restauracja ambasada, Œródmieœcie Pó³nocne",110,3.9,27,"Œródmieœcie pó³nocne",52.234177,21.023844,"Zdrowe jedzenie",1,501628.348438848,5787084.83335095
"296","Restauracja falafelove, Œródmieœcie Pó³nocne",54,4,40,"Œródmieœcie pó³nocne",52.233268,21.011312,"Zdrowe jedzenie",1,500772.532037291,5786983.5201907
"297","Restauracja la brasserie moderne, Œródmieœcie Pó³nocne",200,3.7,26,"Œródmieœcie pó³nocne",52.239744,21.013439,"Miêdzynarodowa",1,500917.65798851,5787703.85320121
"298","Restauracja platter by karol okrasa, Œródmieœcie Pó³nocne",320,3.9,32,"Œródmieœcie pó³nocne",52.23242,21.00273,"Europejska",2,500186.443834211,5786889.14269657
"299","Restauracja sakana sushi, Œródmieœcie Pó³nocne",200,3.9,58,"Œródmieœcie pó³nocne",52.243855,21.011898,"Sushi",2,500812.358500027,5788161.09078658
"300","Restauracja florentin, Œródmieœcie Pó³nocne",100,3.9,22,"Œródmieœcie pó³nocne",52.232711,21.021098,"Izraelska",1,501440.866766061,5786921.71602667
"301","Restauracja kamanda lwowska, Œródmieœcie Pó³nocne",130,3.7,35,"Œródmieœcie pó³nocne",52.234293,21.022334,"Polska",3,501525.223924922,5787097.70286601
"302","Restauracja flow, Œródmieœcie Pó³nocne",160,3.4,51,"Œródmieœcie pó³nocne",52.233289,21.018999,"W³oska",3,501297.500813934,5786985.96573485
"303","Restauracja strefa, Œródmieœcie Pó³nocne",180,4,44,"Œródmieœcie pó³nocne",52.236108,21.004225,"Europejska",1,500288.520116873,5787299.35384492
"304","Restauracja pizza hut, Œródmieœcie Pó³nocne",80,2.5,51,"Œródmieœcie pó³nocne",52.231234,21.012119,"Pizza",1,500827.682431299,5786757.29286758
"305","Restauracja pasadena, Œródmieœcie Pó³nocne",100,3.6,38,"Œródmieœcie pó³nocne",52.235767,21.004431,"W³oska",2,500302.589925416,5787261.42616788
"306","Restauracja wrapeat, Œródmieœcie Pó³nocne",40,3.5,25,"Œródmieœcie pó³nocne",52.230825,21.01769,"Przek¹ski",2,501208.172021977,5786711.87916963
"307","Restauracja sahara, Œródmieœcie Pó³nocne",45,3.3,47,"Œródmieœcie pó³nocne",52.23148,21.01575,"Kebab",2,501075.6602212,5786784.70244209
"308","Restauracja city sam, Œródmieœcie Pó³nocne",100,3.9,33,"Œródmieœcie pó³nocne",52.234371,20.999479,"Europejska",2,499964.420154158,5787106.14372625
"309","Restauracja mleczarnia, Œródmieœcie Pó³nocne",45,2.5,38,"Œródmieœcie pó³nocne",52.231454,21.018332,"Polska",1,501252.000931622,5786781.85199309
"310","Restauracja ¿arcie mamuœki, Œródmieœcie Pó³nocne",50,4,23,"Œródmieœcie pó³nocne",52.23926,21.00014,"Polska",1,500009.55975268,5787649.9340708
"311","Restauracja lemonka, Œródmieœcie Pó³nocne",60,2.2,34,"Œródmieœcie pó³nocne",52.231863,21.002932,"Chiñska",4,500200.241818212,5786827.18965663
"312","Restauracja po prostu zach?ta, Œródmieœcie Pó³nocne",90,3.4,30,"Œródmieœcie pó³nocne",52.231924,21.006727,"Europejska",3,500459.421849992,5786833.99178822
"313","Restauracja ck ober¿a, Œródmieœcie Pó³nocne",120,2.6,42,"Œródmieœcie pó³nocne",52.232173,21.01332,"Polska",2,500909.68705117,5786861.74964181
"314","Restauracja hektor, Œródmieœcie Pó³nocne",80,3.6,38,"Œródmieœcie pó³nocne",52.233962,21.000842,"Polska",1,500057.501930025,5787060.65197103
"315","Restauracja lemon, Œródmieœcie Pó³nocne",100,3.5,50,"Œródmieœcie pó³nocne",52.23442,21.012125,"Przek¹ski",3,500828.032927091,5787111.66299717
"316","Restauracja il patio, Œródmieœcie Pó³nocne",140,3.5,31,"Œródmieœcie pó³nocne",52.23065,21.00231,"W³oska",2,500157.766441802,5786692.26948544
"317","Restauracja uprzejmie donosz?, Œródmieœcie Pó³nocne",80,3.7,48,"Œródmieœcie pó³nocne",52.232381,21.018206,"Burgery",2,501243.369745925,5786884.95748055
"318","Restauracja pastalove, Œródmieœcie Pó³nocne",40,3.7,35,"Œródmieœcie pó³nocne",52.243291,21.005461,"W³oska",1,500372.864852899,5788098.30585691
"319","Restauracja bierhalle, Œródmieœcie Pó³nocne",110,2.6,43,"Œródmieœcie pó³nocne",52.236369,21.018373,"Polska",2,501254.662483543,5787328.53479858
"320","Restauracja mi?dzy nami, Œródmieœcie Pó³nocne",95,3.7,30,"Œródmieœcie pó³nocne",52.232212,21.017237,"Europejska",2,501177.19684206,5786866.14389442
"321","Restauracja planet sushi, Œródmieœcie Pó³nocne",150,3.2,35,"Œródmieœcie pó³nocne",52.23065,21.00231,"Sushi",2,500157.766441802,5786692.26948544
"322","Restauracja kuŸnia smaku, Œródmieœcie Pó³nocne",160,3.6,36,"Œródmieœcie pó³nocne",52.237463,21.013303,"Polska",1,500908.418042364,5787450.14185071
"323","Restauracja asado grill house, Œródmieœcie Pó³nocne",80,2.8,35,"Œródmieœcie pó³nocne",52.238055,21.010602,"Libañska",2,500723.966019224,5787515.95802814
"324","Restauracja downtown restaurant steakhouse hotel intercontinental, Œródmieœcie Pó³nocne",300,3.4,10,"Œródmieœcie pó³nocne",52.23242,21.00273,"Steak",3,500186.443834211,5786889.14269657
"325","Restauracja rolls rolls, Œródmieœcie Pó³nocne",50,3.7,25,"Œródmieœcie pó³nocne",52.232602,21.016692,"Sushi",1,501139.966206131,5786909.51381209
"326","Restauracja carpaccio, Œródmieœcie Pó³nocne",130,3.7,32,"Œródmieœcie pó³nocne",52.234035,21.019304,"W³oska",2,501318.308112937,5787068.94678824
"327","Restauracja champions sports bar restaurant warsaw marriott hotel, Œródmieœcie Pó³nocne",120,3.5,30,"Œródmieœcie pó³nocne",52.22769,21.00363,"Amerykañska",1,500247.935182327,5786363.04068347
"328","Restauracja delicja polska, Œródmieœcie Pó³nocne",170,3.7,18,"Œródmieœcie pó³nocne",52.245397,21.014369,"Polska",1,500981.03669994,5788332.63414669
"329","Restauracja bobby burger, Œródmieœcie Pó³nocne",50,3.5,43,"Œródmieœcie pó³nocne",52.23312,21.01976,"Burgery",2,501349.476995539,5786967.18222229
"330","Restauracja mommo good food, Œródmieœcie Pó³nocne",40,3.7,26,"Œródmieœcie pó³nocne",52.231682,21.019444,"Fast Food",2,501327.939198512,5786807.23159413
"331","Restauracja chinkali, Œródmieœcie Pó³nocne",80,3.7,26,"Œródmieœcie pó³nocne",52.231924,21.006727,"Gruziñska",1,500459.421849992,5786833.99178822
"332","Restauracja kwadrans po nieparzystej, Œródmieœcie Pó³nocne",70,3.6,29,"Œródmieœcie pó³nocne",52.235812,21.010179,"Polska",1,500695.116166268,5787266.47096029
"333","Restauracja thai wok, Œródmieœcie Pó³nocne",60,3,36,"Œródmieœcie pó³nocne",52.23065,21.00231,"Tajska",1,500157.766441802,5786692.26948544
"334","Restauracja jung lecker, Œródmieœcie Pó³nocne",80,3.8,21,"Œródmieœcie pó³nocne",52.244997,21.013742,"Miêdzynarodowa",1,500938.237007575,5788288.13484475
"335","Restauracja corleone, Œródmieœcie Pó³nocne",85,3,27,"Œródmieœcie pó³nocne",52.234118,21.019258,"W³oska",1,501315.164229567,5787078.17781729
"336","Restauracja bar don caruso, Œródmieœcie Pó³nocne",80,3.6,20,"Œródmieœcie pó³nocne",52.234094,21.018791,"W³oska",1,501283.272633275,5787075.49999118
"337","Restauracja au lac, Œródmieœcie Pó³nocne",50,3.6,22,"Œródmieœcie pó³nocne",52.233198,21.01719,"Wietnamska",4,501173.960977858,5786975.81321088
"338","Restauracja babooshka, Œródmieœcie Pó³nocne",100,3.8,27,"Œródmieœcie pó³nocne",52.239556,21.022169,"Rosyjska",2,501513.776756385,5787683.08889476
"339","Restauracja dacurio, Œródmieœcie Pó³nocne",60,3.6,13,"Œródmieœcie pó³nocne",52.236395,21.021794,"Pizza",1,501488.276173813,5787331.49144467
"340","Restauracja paripari, Œródmieœcie Pó³nocne",130,3.2,31,"Œródmieœcie pó³nocne",52.23065,21.00231,"Polska",3,500157.766441802,5786692.26948544
"341","Restauracja salad story, Œródmieœcie Pó³nocne",55,3.6,28,"Œródmieœcie pó³nocne",52.23065,21.00231,"Zdrowe jedzenie",1,500157.766441802,5786692.26948544
"342","Restauracja molly malones, Œródmieœcie Pó³nocne",80,3.7,23,"Œródmieœcie pó³nocne",52.244499,21.013815,"Polska",2,500943.231652488,5788232.74450281
"343","Restauracja geisha sushi, Œródmieœcie Pó³nocne",140,3.7,21,"Œródmieœcie pó³nocne",52.243995,21.013867,"Sushi",2,500946.792726538,5788176.68653117
"344","Restauracja wana sushi, Œródmieœcie Pó³nocne",120,3.5,15,"Œródmieœcie pó³nocne",52.236573,21.017829,"Sushi",2,501217.508021043,5787351.21589631
"345","Restauracja binh minh, Œródmieœcie Pó³nocne",50,3.5,15,"Œródmieœcie pó³nocne",52.234391,21.019113,"Wietnamska",2,501305.253905606,5787108.54024612
"346","Restauracja fragola, Œródmieœcie Pó³nocne",50,2.8,21,"Œródmieœcie pó³nocne",52.23065,21.00231,"Lodziarnia",3,500157.766441802,5786692.26948544
"347","Restauracja mcdonalds, Œródmieœcie Pó³nocne",40,2.4,16,"Œródmieœcie pó³nocne",52.236791,21.01885,"Fast Food",1,501287.223834662,5787375.48109806
"348","Restauracja mama pho, Œródmieœcie Pó³nocne",80,3.8,25,"Œródmieœcie pó³nocne",52.234118,21.019258,"Wietnamska",2,501315.164229567,5787078.17781729
"349","Restauracja mjud, Œródmieœcie Pó³nocne",60,3.6,22,"Œródmieœcie pó³nocne",52.23671,21.01642,"Przek¹ski",2,501121.286677123,5787366.4313071
"350","Restauracja pictures, Œródmieœcie Pó³nocne",70,3.5,29,"Œródmieœcie pó³nocne",52.232226,21.01359,"Europejska",3,500928.12554816,5786867.64810918
"351","Restauracja kwadrat bistro, Œródmieœcie Pó³nocne",100,3.5,13,"Œródmieœcie pó³nocne",52.235921,21.008638,"Europejska",1,500589.881003863,5787278.58107753
"352","Restauracja mamma mia, Œródmieœcie Pó³nocne",90,2.8,29,"Œródmieœcie pó³nocne",52.234522,21.003787,"W³oska",2,500258.618846401,5787122.94567631
"353","Restauracja ricos concept, Œródmieœcie Pó³nocne",100,3.1,19,"Œródmieœcie pó³nocne",52.239203,21.017587,"Chiñska",1,501200.911322157,5787643.73981173
"354","Restauracja trzecia waza, Œródmieœcie Pó³nocne",100,3.5,22,"Œródmieœcie pó³nocne",52.245397,21.014369,"Polska",2,500981.03669994,5788332.63414669
"355","Restauracja endorfina, Œródmieœcie Pó³nocne",210,3.7,20,"Œródmieœcie pó³nocne",52.234449,21.02407,"Europejska",1,501643.772326406,5787115.09227527
"356","Restauracja senatorek, Œródmieœcie Pó³nocne",90,3.3,19,"Œródmieœcie pó³nocne",52.243652,21.006678,"Polska",2,500455.955187892,5788138.46593129
"357","Restauracja subway, Œródmieœcie Pó³nocne",40,2.8,15,"Œródmieœcie pó³nocne",52.236013,21.0112,"Fast Food",1,500764.836024498,5787288.83793537
"358","Restauracja kultura, Œródmieœcie Pó³nocne",150,3.6,20,"Œródmieœcie pó³nocne",52.2434,21.014156,"Polska",2,500966.537614605,5788110.51000209
"359","Restauracja jajko, Œródmieœcie Pó³nocne",45,3.4,13,"Œródmieœcie pó³nocne",52.238865,21.018192,"Polska",3,501242.232599812,5787606.15515468
"360","Restauracja tusz tusz, Œródmieœcie Pó³nocne",100,3.3,12,"Œródmieœcie pó³nocne",52.243965,21.002511,"Miêdzynarodowa",1,500171.442860404,5788173.26209225
"361","Restauracja zielona, Œródmieœcie Pó³nocne",50,3.6,11,"Œródmieœcie pó³nocne",52.2564,20.9856,"Zdrowe jedzenie",1,499017.089996008,5789556.47191139
"362","Restauracja kim ipho, Œródmieœcie Pó³nocne",50,2.7,14,"Œródmieœcie pó³nocne",52.22859,21.008643,"Wietnamska",3,500590.319683222,5786463.17412775
"363","Restauracja prosecco, Œródmieœcie Pó³nocne",130,3.7,19,"Œródmieœcie pó³nocne",52.233962,21.000842,"W³oska",4,500057.501930025,5787060.65197103
"364","Restauracja kamera bistro, Œródmieœcie Pó³nocne",120,2.9,7,"Œródmieœcie pó³nocne",52.233843,21.02195,"Polska",2,501499.015120576,5787047.64257619
"365","Restauracja villa foksal, Œródmieœcie Pó³nocne",170,3.5,11,"Œródmieœcie pó³nocne",52.233902,21.023456,"Europejska",2,501601.86113992,5787054.23720155
"366","Restauracja costa coffee, Œródmieœcie Pó³nocne",40,3.4,13,"Œródmieœcie pó³nocne",52.23065,21.00231,"Kawiarnia",1,500157.766441802,5786692.26948544
"367","Restauracja groole, Œródmieœcie Pó³nocne",50,3.7,11,"Œródmieœcie pó³nocne",52.233785,21.018903,"Polska",1,501290.930287015,5787041.13274949
"368","Restauracja hulakula rozrywkowe centrum miasta, Œródmieœcie Pó³nocne",NA,3.4,11,"Œródmieœcie pó³nocne",52.273137,21.017131,"Europejska",1,501168.881421412,5791418.13330002
"369","Restauracja irish pub, Œródmieœcie Pó³nocne",50,2.7,15,"Œródmieœcie pó³nocne",52.246036,21.012756,"Azjatycka",2,500870.89737514,5788403.68791351
"370","Restauracja gastronomia, Œródmieœcie Pó³nocne",100,3.4,8,"Œródmieœcie pó³nocne",52.233684,21.019968,"Miêdzynarodowa",1,501363.664733729,5787029.91829745
"371","Restauracja khuk, Œródmieœcie Pó³nocne",100,3.7,17,"Œródmieœcie pó³nocne",52.236907,21.01026,"Tajska",1,500700.630353082,5787388.26566713
"372","Restauracja north fish, Œródmieœcie Pó³nocne",45,3.4,12,"Œródmieœcie pó³nocne",52.23065,21.00231,"Fast Food",1,500157.766441802,5786692.26948544
"373","Restauracja meat fit, Œródmieœcie Pó³nocne",60,3.7,18,"Œródmieœcie pó³nocne",52.2371,21.0019,"Burgery",2,500129.745799081,5787409.6846529
"374","Restauracja orient express, Œródmieœcie Pó³nocne",55,3.4,9,"Œródmieœcie pó³nocne",52.232873,21.012215,"Azjatycka",2,500834.208149821,5786939.59542876
"375","Restauracja hana sushi, Œródmieœcie Pó³nocne",150,3.6,12,"Œródmieœcie pó³nocne",52.23065,21.00231,"Japoñska",1,500157.766441802,5786692.26948544
"376","Restauracja kaiser, Œródmieœcie Pó³nocne",160,3.5,13,"Œródmieœcie pó³nocne",52.232274,21.013829,"Polska",3,500944.446972853,5786872.99010464
"377","Restauracja doppio cuore, Œródmieœcie Pó³nocne",110,3.4,18,"Œródmieœcie pó³nocne",52.234268,21.019722,"W³oska",1,501346.847102535,5787094.87043149
"378","Restauracja corazzi, Œródmieœcie Pó³nocne",120,2.9,16,"Œródmieœcie pó³nocne",52.244193,21.003535,"Polska",2,500241.356991344,5788198.62487353
"379","Restauracja tacamole, Œródmieœcie Pó³nocne",60,3.7,18,"Œródmieœcie pó³nocne",52.23065,21.00231,"Meksykañska",2,500157.766441802,5786692.26948544
"380","Restauracja antrakt, Œródmieœcie Pó³nocne",50,3.5,11,"Œródmieœcie pó³nocne",52.241071,21.012422,"Kawiarnia",1,500848.188670688,5787851.43958025
"381","Restauracja makarun, Œródmieœcie Pó³nocne",30,2.5,17,"Œródmieœcie pó³nocne",52.22867,21.00355,"Europejska",1,500242.465707563,5786472.04304517
"382","Restauracja nasze miejsce, Œródmieœcie Pó³nocne",100,3.7,19,"Œródmieœcie pó³nocne",52.242905,20.993207,"Europejska",2,499536.185145102,5788055.37974704
"383","Restauracja afera, Œródmieœcie Pó³nocne",40,3.5,18,"Œródmieœcie pó³nocne",52.232824,21.014532,"Przek¹ski",2,500992.44585931,5786934.17448963
"384","Restauracja trattoria bellamonte, Œródmieœcie Pó³nocne",100,3.3,7,"Œródmieœcie pó³nocne",52.241113,21.015637,"W³oska",1,501067.711617088,5787856.15362857
"385","Restauracja el barrio , Œródmieœcie Pó³nocne",NA,3.4,4,"Œródmieœcie pó³nocne",52.25065,21.00846,"Meksykañska",1,500577.534299872,5788916.84893011
"386","Restauracja organitheka, Œródmieœcie Pó³nocne",90,3.5,12,"Œródmieœcie pó³nocne",52.235066,21.002241,"Zdrowe jedzenie",1,500153.038750944,5787183.44893772
"387","Restauracja tele sajgon, Œródmieœcie Pó³nocne",65,2.7,13,"Œródmieœcie pó³nocne",52.23307,21.01498,"Wietnamska",1,501023.035837452,5786961.54262578
"388","Restauracja moja kantyna, Œródmieœcie Pó³nocne",45,3.2,6,"Œródmieœcie pó³nocne",52.243639,21.013355,"Polska",2,500911.842363501,5788137.08298562
"389","Restauracja fresh pasta point, Œródmieœcie Pó³nocne",40,3,15,"Œródmieœcie pó³nocne",52.232602,21.016692,"W³oska",1,501139.966206131,5786909.51381209
"390","Restauracja burger king, Œródmieœcie Pó³nocne",40,2.9,7,"Œródmieœcie pó³nocne",52.23097,21.01239,"Fast Food",1,500846.195738429,5786727.9320079
"391","Restauracja piec, Œródmieœcie Pó³nocne",100,2.6,11,"Œródmieœcie pó³nocne",52.24566,21.013388,"Polska",1,500914.053983486,5788361.87415319
"392","Restauracja green caffe nero, Œródmieœcie Pó³nocne",45,3.3,6,"Œródmieœcie pó³nocne",52.241946,20.994343,"Kawiarnia",1,499613.741028168,5787948.70596396
"393","Restauracja hanabi, Œródmieœcie Pó³nocne",80,3.3,13,"Œródmieœcie pó³nocne",52.231924,21.006727,"Azjatycka",3,500459.421849992,5786833.99178822
"394","Restauracja pazzo cafe, Œródmieœcie Pó³nocne",80,3.4,9,"Œródmieœcie pó³nocne",52.234327,20.998621,"Francuska",2,499905.825996298,5787101.25049338
"395","Restauracja frytki burgery, Œródmieœcie Pó³nocne",60,2.9,13,"Œródmieœcie pó³nocne",52.232333,21.011331,"Burgery",2,500773.845865249,5786879.52290255
"396","Restauracja stephanie bistro, Œródmieœcie Pó³nocne",60,3.4,8,"Œródmieœcie pó³nocne",52.233268,21.011312,"Kawiarnia",3,500772.532037291,5786983.5201907
"397","Restauracja vege kiosk, Œródmieœcie Pó³nocne",60,3,9,"Œródmieœcie pó³nocne",52.231263,21.015831,"Zdrowe jedzenie",1,501081.197459748,5786760.5673372
"398","Restauracja tramwaj warszawski, Œródmieœcie Pó³nocne",70,3.1,13,"Œródmieœcie pó³nocne",52.23718,21.006707,"Polska",2,500458.001847063,5787418.60233196
"399","Restauracja filmowa, Œródmieœcie Pó³nocne",110,3.1,8,"Œródmieœcie pó³nocne",52.23185,21.00182,"Polska",1,500124.297481455,5786825.7412129
"400","Restauracja gold kim, Œródmieœcie Pó³nocne",50,3.3,7,"Œródmieœcie pó³nocne",52.233962,21.000842,"Wietnamska",3,500057.501930025,5787060.65197103
"401","Restauracja kfc, Œródmieœcie Pó³nocne",30,2.9,6,"Œródmieœcie pó³nocne",52.230825,21.01769,"Fast Food",1,501208.172021977,5786711.87916963
"402","Restauracja bojangles bar hotel polonia palace, Œródmieœcie Pó³nocne",230,3.3,4,"Œródmieœcie pó³nocne",52.22928,21.01028,"Europejska",2,500702.116425484,5786539.93548318
"403","Restauracja miseczka oshin, Œródmieœcie Pó³nocne",100,3.5,12,"Œródmieœcie pó³nocne",52.23749,21.002776,"Sushi",1,500189.563779658,5787453.0652486
"404","Restauracja fudu, Œródmieœcie Pó³nocne",40,2.7,6,"Œródmieœcie pó³nocne",52.23718,21.006707,"Chiñska",2,500458.001847063,5787418.60233196
"405","Restauracja ¿e ho ho, Œródmieœcie Pó³nocne",60,2.8,6,"Œródmieœcie pó³nocne",52.236013,21.0112,"Europejska",1,500764.836024498,5787288.83793537
"406","Restauracja parmizzanos restaurant warsaw marriott hotel, Œródmieœcie Pó³nocne",200,3.3,4,"Œródmieœcie pó³nocne",52.22769,21.00363,"W³oska",1,500247.935182327,5786363.04068347
"407","Restauracja gusto dominium, Œródmieœcie Pó³nocne",80,2.9,4,"Œródmieœcie pó³nocne",52.232866,21.013008,"Pizza",1,500888.365232663,5786938.82626123
"408","Restauracja wasabi sushi, Œródmieœcie Pó³nocne",130,3.4,12,"Œródmieœcie pó³nocne",52.241071,21.012422,"Sushi",4,500848.188670688,5787851.43958025
"409","Restauracja vietmama, Œródmieœcie Pó³nocne",60,NA,0,"Œródmieœcie pó³nocne",52.233202,21.018582,"Wietnamska",1,501269.025067834,5786976.28157926
"410","Restauracja chill n grill, Œródmieœcie Pó³nocne",100,3.3,5,"Œródmieœcie pó³nocne",52.236791,21.01885,"Miêdzynarodowa",1,501287.223834662,5787375.48109806
"411","Restauracja kie³ba w g?bie, Œródmieœcie Pó³nocne",40,3.2,5,"Œródmieœcie pó³nocne",52.22867,21.00355,"Polska",1,500242.465707563,5786472.04304517
"412","Restauracja green, Œródmieœcie Pó³nocne",60,3.3,10,"Œródmieœcie pó³nocne",52.232941,21.015121,"Zdrowe jedzenie",1,501032.668206839,5786947.19630797
"413","Restauracja wiking, Œródmieœcie Pó³nocne",60,2.9,8,"Œródmieœcie pó³nocne",52.23065,21.00231,"Polska",2,500157.766441802,5786692.26948544
"414","Restauracja burger boss, Œródmieœcie Pó³nocne",40,2.9,9,"Œródmieœcie pó³nocne",52.233,21.02021,"Burgery",1,501380.212733536,5786953.84342412
"415","Restauracja magat, Œródmieœcie Pó³nocne",60,3.1,7,"Œródmieœcie pó³nocne",52.235184,21.001845,"Polska",1,500125.995424705,5787196.57299772
"416","Restauracja pi?tro ni¿ej, Œródmieœcie Pó³nocne",80,3.3,6,"Œródmieœcie pó³nocne",52.236288,21.006419,"Polska",2,500438.343937979,5787319.38576568
"417","Restauracja bong sen, Œródmieœcie Pó³nocne",45,3.1,8,"Œródmieœcie pó³nocne",52.234788,21.01063,"Azjatycka",1,500725.931317898,5787152.57861577
"418","Restauracja risk made warsaw, Œródmieœcie Pó³nocne",40,NA,0,"Œródmieœcie pó³nocne",52.232941,21.015121,"Kawiarnia",1,501032.668206839,5786947.19630797
"419","Restauracja bistro korado, Œródmieœcie Pó³nocne",70,2.9,9,"Œródmieœcie pó³nocne",52.231924,21.006727,"Polska",1,500459.421849992,5786833.99178822
"420","Restauracja pronto pasta bar, Œródmieœcie Pó³nocne",80,3,8,"Œródmieœcie pó³nocne",52.238597,21.018038,"W³oska",1,501231.724197753,5787576.34358987
"421","Restauracja funky fish, Œródmieœcie Pó³nocne",80,3.3,5,"Œródmieœcie pó³nocne",52.229194,21.014801,"Ryby i owoce morza",2,501010.899346139,5786530.42336726
"422","Restauracja granica przyzwoitoœci, Œródmieœcie Pó³nocne",111,3.1,6,"Œródmieœcie pó³nocne",52.232745,21.011657,"Grill",2,500796.102527511,5786925.35206347
"423","Restauracja restauracja kameralna, Œródmieœcie Pó³nocne",115,3.3,6,"Œródmieœcie pó³nocne",52.233843,21.02195,"Polska",1,501499.015120576,5787047.64257619
"424","Restauracja novu kuchnia bar, Œródmieœcie Pó³nocne",100,NA,0,"Œródmieœcie pó³nocne",52.231579,21.002247,"Miêdzynarodowa",2,500153.460517327,5786795.59944825
"425","Restauracja locale, Œródmieœcie Pó³nocne",95,3.3,5,"Œródmieœcie pó³nocne",52.235497,21.001596,"W³oska",2,500108.990397506,5787231.3867426
"426","Restauracja nasza warszawa, Œródmieœcie Pó³nocne",109,NA,0,"Œródmieœcie pó³nocne",52.243236,20.998337,"Miêdzynarodowa",2,499886.453943013,5788092.17560056
"427","Restauracja labrax, Œródmieœcie Pó³nocne",100,3.2,5,"Œródmieœcie pó³nocne",52.231586,21.01751,"Miêdzynarodowa",1,501195.858133292,5786796.52010805
"428","Restauracja panda handroll, Œródmieœcie Pó³nocne",30,3.2,4,"Œródmieœcie pó³nocne",52.221562,21.243198,"Sushi",1,516613.111979916,5785709.30228787
"429","Restauracja kitchen gallery hotel sofitel warsaw victoria, Œródmieœcie Pó³nocne",150,3.2,4,"Œródmieœcie pó³nocne",52.23997,21.0134,"Miêdzynarodowa",1,500914.990295722,5787728.99009971
"430","Restauracja eufemia bistro, Œródmieœcie Pó³nocne",50,NA,0,"Œródmieœcie pó³nocne",52.237576,21.017514,"Polska",2,501195.970319692,5787462.77167668
"431","Restauracja bistro ratusz arsena³, Œródmieœcie Pó³nocne",60,NA,0,"Œródmieœcie pó³nocne",52.243135,21.000404,"Polska",1,500027.584312191,5788080.94040116
"432","Restauracja bar pod iglic¹, Œródmieœcie Pó³nocne",30,3,6,"Œródmieœcie pó³nocne",52.231764,21.0058,"Polska",3,500396.11361828,5786816.18995802
"433","Restauracja naleœniki u heyna, Œródmieœcie Pó³nocne",70,3,5,"Œródmieœcie pó³nocne",52.244198,21.013903,"Przek¹ski",1,500949.246355249,5788199.2661799
"434","Restauracja indeks, Œródmieœcie Pó³nocne",40,3.2,4,"Œródmieœcie pó³nocne",52.239605,21.017347,"Drinki",3,501184.512451447,5787688.44927171
"435","Restauracja dai la piada, Œródmieœcie Pó³nocne",50,NA,0,"Œródmieœcie pó³nocne",52.22867,21.00355,"W³oska",1,500242.465707563,5786472.04304517
"436","Restauracja rest cafe pasa¿, Œródmieœcie Pó³nocne",80,NA,0,"Œródmieœcie pó³nocne",52.231077,21.01288,"Polska",2,500879.658991612,5786739.83915509
"437","Restauracja zakr?t, Œródmieœcie Pó³nocne",40,3.3,4,"Œródmieœcie pó³nocne",52.245,21.00687,"Rosyjska",1,500469.050197853,5788288.40180203
"438","Restauracja italian corner cafe, Œródmieœcie Pó³nocne",50,NA,0,"Œródmieœcie pó³nocne",52.23065,21.00231,"W³oska",1,500157.766441802,5786692.26948544
"439","Restauracja projekt sushi, Œródmieœcie Pó³nocne",120,3.2,4,"Œródmieœcie pó³nocne",52.244402,21.007209,"Sushi",1,500492.202086282,5788221.89001204
"440","Restauracja bar kubuœ, Œródmieœcie Pó³nocne",40,3.1,4,"Œródmieœcie pó³nocne",52.235652,21.019288,"Polska",1,501317.167578146,5787248.80104246
"441","Restauracja ryby z ustki, Œródmieœcie Pó³nocne",50,NA,0,"Œródmieœcie pó³nocne",52.239,20.99731,"Ryby i owoce morza",1,499816.315107293,5787621.01835077
"442","Restauracja +one bar hotel intercontinental, Œródmieœcie Pó³nocne",130,NA,0,"Œródmieœcie pó³nocne",52.23242,21.00273,"Europejska",2,500186.443834211,5786889.14269657
"443","Restauracja trattoria tavola, Œródmieœcie Pó³nocne",100,2.9,4,"Œródmieœcie pó³nocne",52.234603,21.01193,"W³oska",1,500814.712758541,5787132.01538233
"444","Restauracja express doner, Œródmieœcie Pó³nocne",60,NA,0,"Œródmieœcie pó³nocne",52.23065,21.00231,"Turecka",2,500157.766441802,5786692.26948544
"445","Restauracja sitosushi, Œródmieœcie Pó³nocne",80,NA,0,"Œródmieœcie pó³nocne",52.236465,21.002887,"Sushi",2,500197.148140769,5787339.05751855
"446","Restauracja strauss hotel polonia palace, Œródmieœcie Pó³nocne",200,3.3,4,"Œródmieœcie pó³nocne",52.22928,21.01028,"Europejska",2,500702.116425484,5786539.93548318
"447","Restauracja wok sushi, Œródmieœcie Pó³nocne",100,NA,0,"Œródmieœcie pó³nocne",52.22867,21.00355,"Sushi",1,500242.465707563,5786472.04304517
"448","Restauracja restauracja ogrodowa hotel radisson blu centrum, Œródmieœcie Pó³nocne",100,NA,0,"Œródmieœcie pó³nocne",52.2365,20.99854,"Europejska",1,499900.299252116,5787342.94755286
"449","Restauracja galil kosher, Œródmieœcie Pó³nocne",160,NA,0,"Œródmieœcie pó³nocne",52.236176,21.006486,"¯ydowska",2,500442.920382894,5787306.92871224
"450","Restauracja sushi point, Œródmieœcie Pó³nocne",70,NA,0,"Œródmieœcie pó³nocne",52.23065,21.00231,"Sushi",2,500157.766441802,5786692.26948544
"451","Restauracja bistro trojka, Œródmieœcie Pó³nocne",120,NA,0,"Œródmieœcie pó³nocne",52.23192,21.00678,"Polska",1,500463.041537518,5786833.5472165
"452","Restauracja karczma u ch³opa hotel gromada, Œródmieœcie Pó³nocne",120,NA,0,"Œródmieœcie pó³nocne",52.23455,21.01436,"Polska",1,500980.661285597,5787126.15043268
"453","Restauracja avangarda, Œródmieœcie Pó³nocne",155,NA,0,"Œródmieœcie pó³nocne",52.236932,21.01455,"Polska",1,500993.58342067,5787391.0964927
"454","Restauracja lilla weneda warsaw marriott hotel, Œródmieœcie Pó³nocne",110,NA,0,"Œródmieœcie pó³nocne",52.22769,21.00363,"Miêdzynarodowa",1,500247.935182327,5786363.04068347
"455","Restauracja stary lwów, Œródmieœcie Pó³nocne",100,NA,0,"Œródmieœcie pó³nocne",52.234532,21.019832,"Ukraiñska",2,501354.351144621,5787124.23648642
"456","Restauracja warszawa, Œródmieœcie Pó³nocne",100,NA,0,"Œródmieœcie pó³nocne",52.24622,21.013277,"Polska",1,500906.464143714,5788424.1601655
"457","Restauracja lobby bar warsaw marriott hotel, Œródmieœcie Pó³nocne",100,NA,0,"Œródmieœcie pó³nocne",52.22769,21.00363,"Miêdzynarodowa",1,500247.935182327,5786363.04068347
"458","Restauracja winestone hotel mercure, Œródmieœcie Pó³nocne",150,NA,0,"Œródmieœcie pó³nocne",52.23077,21.00128,"Miêdzynarodowa",3,500087.420130318,5786705.6150102
"459","Restauracja india cafe, Œródmieœcie Pó³nocne",40,NA,0,"Œródmieœcie pó³nocne",52.231924,21.006727,"Kawiarnia",1,500459.421849992,5786833.99178822
"460","Restauracja warsztat kulinarny rondo, Œródmieœcie Pó³nocne",80,NA,0,"Œródmieœcie pó³nocne",52.233274,20.998723,"W³oska",1,499912.789667594,5786984.12803736
"461","Restauracja z metra ci?te, Œródmieœcie Pó³nocne",50,NA,0,"Œródmieœcie pó³nocne",52.238685,21.017884,"W³oska",1,501221.20589791,5787586.12899257
"462","Restauracja kosher delight, Œródmieœcie Pó³nocne",100,NA,0,"Œródmieœcie pó³nocne",52.23749,21.002776,"¯ydowska",1,500189.563779658,5787453.0652486
"463","Restauracja domowe kulinaria, Œródmieœcie Pó³nocne",20,NA,0,"Œródmieœcie pó³nocne",52.22867,21.00355,"Polska",1,500242.465707563,5786472.04304517
"464","Restauracja edokko sushi box, Œródmieœcie Pó³nocne",50,NA,0,"Œródmieœcie pó³nocne",52.23302,20.99883,"Sushi",2,499920.096576903,5786955.87618742
"465","Restauracja ferdys hotel radisson blu centrum, Œródmieœcie Pó³nocne",220,NA,0,"Œródmieœcie pó³nocne",52.2365,20.99854,"Steak",4,499900.299252116,5787342.94755286
"466","Restauracja bouillon, Œródmieœcie Pó³nocne",100,NA,0,"Œródmieœcie pó³nocne",52.238994,21.020021,"Francuska",1,501367.121083466,5787620.53641217
"467","Restauracja smakuœ, Œródmieœcie Pó³nocne",50,NA,0,"Œródmieœcie pó³nocne",52.238177,21.020353,"Polska",1,501389.817009166,5787529.66996441
"468","Restauracja snack 4 all, Œródmieœcie Pó³nocne",40,NA,0,"Œródmieœcie pó³nocne",52.23327,21.01884,"Amerykañska",3,501286.642758726,5786983.84958225
"469","Restauracja boncario, Œródmieœcie Pó³nocne",100,NA,0,"Œródmieœcie pó³nocne",52.243135,21.000404,"W³oska",1,500027.584312191,5788080.94040116
"470","Restauracja pe³ny brzuszek, Œródmieœcie Pó³nocne",60,NA,0,"Œródmieœcie pó³nocne",52.206131,20.976063,"Polska",1,498364.270376806,5783965.36240412
"471","Restauracja smaku³yk, Œródmieœcie Pó³nocne",60,NA,0,"Œródmieœcie pó³nocne",52.236288,21.006419,"Polska",2,500438.343937979,5787319.38576568
"472","Restauracja u szwejka, Œródmieœcie Po³udniowe",66,3.6,761,"Œródmieœcie po³udniowe",52.221363,21.016404,"Polska",3,501120.580388989,5785659.42735952
"473","Restauracja uki uki, Œródmieœcie Po³udniowe",90,4.9,530,"Œródmieœcie po³udniowe",52.227183,21.01771,"Japoñska",2,501209.636935739,5786306.79007651
"474","Restauracja sexy duck, Œródmieœcie Po³udniowe",100,4.3,427,"Œródmieœcie po³udniowe",52.221714,21.015262,"W³oska",1,501042.560538401,5785698.45101497
"475","Restauracja wi taj, Œródmieœcie Po³udniowe",90,4.6,225,"Œródmieœcie po³udniowe",52.22224,21.017629,"Tajska",2,501204.238144821,5785756.9931289
"476","Restauracja la sirena, Œródmieœcie Po³udniowe",100,4.8,237,"Œródmieœcie po³udniowe",52.223121,21.012261,"Tex-Mex",1,500837.533140572,5785854.90857991
"477","Restauracja krowarzywa, Œródmieœcie Po³udniowe",40,4.2,461,"Œródmieœcie po³udniowe",52.2263,21.0149,"Burgery",1,501017.727154272,5786208.53333203
"478","Restauracja secado, Œródmieœcie Po³udniowe",120,4.2,290,"Œródmieœcie po³udniowe",52.224897,21.015252,"Amerykañska",4,501041.802939223,5786052.48667483
"479","Restauracja zorza, Œródmieœcie Po³udniowe",90,4.2,267,"Œródmieœcie po³udniowe",52.229071,21.017957,"Europejska",1,501226.455624622,5786516.79113082
"480","Restauracja charlotte, Œródmieœcie Po³udniowe",60,3.7,290,"Œródmieœcie po³udniowe",52.21963,21.017688,"Kawiarnia",2,501208.339272745,5785466.69154349
"481","Restauracja cuda na kiju, Œródmieœcie Po³udniowe",60,4.6,292,"Œródmieœcie po³udniowe",52.231392,21.022266,"Pizza",2,501520.679223368,5786775.03114962
"482","Restauracja pe³n¹ par¹, Œródmieœcie Po³udniowe",60,4.5,229,"Œródmieœcie po³udniowe",52.22005,21.015177,"Chiñska",2,501036.792863396,5785513.36800703
"483","Restauracja kraken rum bar, Œródmieœcie Po³udniowe",85,4.5,270,"Œródmieœcie po³udniowe",52.224605,21.012295,"Ryby i owoce morza",1,500839.827640386,5786019.96997992
"484","Restauracja flambéeria, Œródmieœcie Po³udniowe",70,4.5,206,"Œródmieœcie po³udniowe",52.224547,21.007769,"Francuska",2,500530.673399477,5786013.47602206
"485","Restauracja namaste india, Œródmieœcie Po³udniowe",85,3.9,316,"Œródmieœcie po³udniowe",52.2296,21.016656,"Indyjska",1,501137.584346158,5786575.60910176
"486","Restauracja la tomatina, Œródmieœcie Po³udniowe",100,4,198,"Œródmieœcie po³udniowe",52.223987,21.019802,"W³oska",2,501352.622834911,5785951.34515812
"487","Restauracja pogromcy meatów, Œródmieœcie Po³udniowe",80,4.7,211,"Œródmieœcie po³udniowe",52.220288,21.023236,"Grill",2,501587.322270638,5785539.98590048
"488","Restauracja oh my pho, Œródmieœcie Po³udniowe",40,4.4,140,"Œródmieœcie po³udniowe",52.225144,21.015684,"Wietnamska",3,501071.305181843,5786079.96606892
"489","Restauracja soul kitchen bistro, Œródmieœcie Po³udniowe",95,4.8,170,"Œródmieœcie po³udniowe",52.229461,21.014862,"Europejska",1,501015.059519996,5786560.12188128
"490","Restauracja bibenda, Œródmieœcie Po³udniowe",100,4.4,156,"Œródmieœcie po³udniowe",52.22989,21.01651,"Europejska",1,501127.605378339,5786607.86270968
"491","Restauracja mandala, Œródmieœcie Po³udniowe",100,3.9,235,"Œródmieœcie po³udniowe",52.223664,21.007302,"Indyjska",3,500498.784145316,5785915.25917807
"492","Restauracja mod, Œródmieœcie Po³udniowe",100,4.6,183,"Œródmieœcie po³udniowe",52.216722,21.017904,"Azjatycka",3,501223.174994186,5785143.24709374
"493","Restauracja why thai, Œródmieœcie Po³udniowe",140,4.6,156,"Œródmieœcie po³udniowe",52.226552,21.024917,"Tajska",1,501701.917034476,5786236.75048808
"494","Restauracja niez³e zió³ko, Œródmieœcie Po³udniowe",60,4.3,108,"Œródmieœcie po³udniowe",52.225755,21.018627,"Kawiarnia",2,501272.311125826,5786147.97341682
"495","Restauracja trattoria rucola, Œródmieœcie Po³udniowe",130,4,196,"Œródmieœcie po³udniowe",52.227242,21.018179,"W³oska",2,501241.66915317,5786313.36040904
"496","Restauracja butchery wine, Œródmieœcie Po³udniowe",250,4.3,211,"Œródmieœcie po³udniowe",52.228547,21.015492,"Steak",1,501058.10960875,5786458.46923872
"497","Restauracja tuk tuk, Œródmieœcie Po³udniowe",60,4,205,"Œródmieœcie po³udniowe",52.21943,21.01741,"Tajska",2,501189.353303879,5785444.44154396
"498","Restauracja youmiko vegan sushi, Œródmieœcie Po³udniowe",100,4.4,89,"Œródmieœcie po³udniowe",52.225597,21.010842,"Sushi",2,500740.561884809,5786130.29144063
"499","Restauracja bazar kocha, Œródmieœcie Po³udniowe",135,4,125,"Œródmieœcie po³udniowe",52.221949,21.019209,"Polska",1,501312.176624206,5785724.65347858
"500","Restauracja wilcza 50, Œródmieœcie Po³udniowe",170,4.5,113,"Œródmieœcie po³udniowe",52.224235,21.011703,"Œródziemnomorska",1,500799.396874148,5785978.80925778
"501","Restauracja kita koguta, Œródmieœcie Po³udniowe",90,4.6,174,"Œródmieœcie po³udniowe",52.225412,21.019268,"Drinki",1,501316.104561208,5786109.83395753
"502","Restauracja sushi zushi, Œródmieœcie Po³udniowe",200,4.1,228,"Œródmieœcie po³udniowe",52.229071,21.017957,"Sushi",2,501226.455624622,5786516.79113082
"503","Restauracja rusiko, Œródmieœcie Po³udniowe",120,4.2,79,"Œródmieœcie po³udniowe",52.226683,21.023644,"Gruziñska",1,501614.961992581,5786251.29211837
"504","Restauracja s³odki s³ony, Œródmieœcie Po³udniowe",100,3.9,117,"Œródmieœcie po³udniowe",52.223101,21.019978,"Polska",2,501364.672094186,5785852.80125835
"505","Restauracja znajomi znajomych, Œródmieœcie Po³udniowe",100,4.1,192,"Œródmieœcie po³udniowe",52.223971,21.010052,"Œródziemnomorska",2,500686.626081873,5785949.42838101
"506","Restauracja omami, Œródmieœcie Po³udniowe",80,4.1,138,"Œródmieœcie po³udniowe",52.225412,21.019268,"Japoñska",1,501316.104561208,5786109.83395753
"507","Restauracja sofra, Œródmieœcie Po³udniowe",95,4.3,172,"Œródmieœcie po³udniowe",52.223303,21.008737,"Turecka",6,500596.810793615,5785875.11704406
"508","Restauracja warung jakarta, Œródmieœcie Po³udniowe",85,4,117,"Œródmieœcie po³udniowe",52.22351,21.0167,"Azjatycka",1,501140.745551631,5785898.23648679
"509","Restauracja vapiano, Œródmieœcie Po³udniowe",110,3.8,215,"Œródmieœcie po³udniowe",52.228208,21.005714,"W³oska",1,500390.271389663,5786420.66553279
"510","Restauracja bistro la cocotte, Œródmieœcie Po³udniowe",130,3.9,137,"Œródmieœcie po³udniowe",52.220261,21.018326,"Francuska",1,501251.905906659,5785536.88661832
"511","Restauracja byæ mo¿e, Œródmieœcie Po³udniowe",56,4,136,"Œródmieœcie po³udniowe",52.213896,21.022199,"Kawiarnia",3,501516.699333947,5784829.00094902
"512","Restauracja shabu shabu, Œródmieœcie Po³udniowe",85,4,95,"Œródmieœcie po³udniowe",52.221329,21.018763,"Azjatycka",1,501281.727985449,5785655.68472784
"513","Restauracja chwast food, Œródmieœcie Po³udniowe",50,4.2,122,"Œródmieœcie po³udniowe",52.220683,21.015183,"Burgery",2,501037.187997718,5785583.77480083
"514","Restauracja atelier amaro, Œródmieœcie Po³udniowe",580,4.3,106,"Œródmieœcie po³udniowe",52.215062,21.035563,"Polska",1,502429.702492326,5784959.05526296
"515","Restauracja groole, Œródmieœcie Po³udniowe",50,4.1,200,"Œródmieœcie po³udniowe",52.221669,21.015105,"Polska",1,501031.8367744,5785693.44355127
"516","Restauracja woda ognista, Œródmieœcie Po³udniowe",60,4.6,70,"Œródmieœcie po³udniowe",52.226357,21.021029,"Drinki",1,501436.359520964,5786214.97703037
"517","Restauracja bardziej, Œródmieœcie Po³udniowe",65,4.4,108,"Œródmieœcie po³udniowe",52.217008,21.019215,"Hiszpañska",3,501312.732157123,5785175.08093381
"518","Restauracja bar prasowy, Œródmieœcie Po³udniowe",30,4.1,140,"Œródmieœcie po³udniowe",52.215453,21.020795,"Polska",1,501420.724354678,5785002.15281697
"519","Restauracja tel aviv food wine, Œródmieœcie Po³udniowe",90,4.1,165,"Œródmieœcie po³udniowe",52.224597,21.011929,"Œródziemnomorska",1,500814.827631043,5786019.07598579
"520","Restauracja okienko, Œródmieœcie Po³udniowe",20,4.1,181,"Œródmieœcie po³udniowe",52.216425,21.017662,"Przek¹ski",2,501206.649957713,5785110.20863272
"521","Restauracja ale wino, Œródmieœcie Po³udniowe",110,4.3,87,"Œródmieœcie po³udniowe",52.225176,21.021704,"Europejska",2,501482.503882052,5786083.63138223
"522","Restauracja ¿urawina, Œródmieœcie Po³udniowe",160,4.1,95,"Œródmieœcie po³udniowe",52.228416,21.013982,"Europejska",1,500954.978834277,5786443.87750958
"523","Restauracja beirut, Œródmieœcie Po³udniowe",90,4.1,136,"Œródmieœcie po³udniowe",52.224605,21.012295,"Libañska",2,500839.827640386,5786019.96997992
"524","Restauracja trattoria da antonio, Œródmieœcie Po³udniowe",140,4.2,100,"Œródmieœcie po³udniowe",52.22875,21.016456,"W³oska",1,501123.946056085,5786481.06286713
"525","Restauracja lokal vegan bistro, Œródmieœcie Po³udniowe",50,4.2,90,"Œródmieœcie po³udniowe",52.227183,21.01771,"Zdrowe jedzenie",1,501209.636935739,5786306.79007651
"526","Restauracja manekin, Œródmieœcie Po³udniowe",50,4.2,124,"Œródmieœcie po³udniowe",52.222319,21.015136,"Europejska",1,501033.939317859,5785765.74158047
"527","Restauracja sokotra, Œródmieœcie Po³udniowe",80,4.1,135,"Œródmieœcie po³udniowe",52.224963,21.016703,"Arabska",2,501140.913236567,5786059.84951025
"528","Restauracja mito, Œródmieœcie Po³udniowe",50,3.6,129,"Œródmieœcie po³udniowe",52.220907,21.016066,"Kawiarnia",3,501097.502372954,5785608.70265767
"529","Restauracja leniviec, Œródmieœcie Po³udniowe",60,3.6,140,"Œródmieœcie po³udniowe",52.223986,21.01233,"Kawiarnia",4,500842.230076741,5785951.1208101
"530","Restauracja regina, Œródmieœcie Po³udniowe",70,4.3,84,"Œródmieœcie po³udniowe",52.220288,21.023236,"Chiñska",2,501587.322270638,5785539.98590048
"531","Restauracja kufle i kapsle, Œródmieœcie Po³udniowe",60,4.1,137,"Œródmieœcie po³udniowe",52.229194,21.014801,"Drinki",2,501010.899346139,5786530.42336726
"532","Restauracja signature, Œródmieœcie Po³udniowe",200,4.2,60,"Œródmieœcie po³udniowe",52.22515,21.01171,"Europejska",2,500799.85858236,5786080.58213993
"533","Restauracja brasserie warszawska, Œródmieœcie Po³udniowe",220,4.3,83,"Œródmieœcie po³udniowe",52.224385,21.028594,"Francuska",3,501953.163889815,5785995.81402004
"534","Restauracja delikatesy esencja, Œródmieœcie Po³udniowe",150,3.8,76,"Œródmieœcie po³udniowe",52.214685,21.02129,"Europejska",1,501454.568076889,5784916.74035422
"535","Restauracja browar de brasil, Œródmieœcie Po³udniowe",90,2.4,141,"Œródmieœcie po³udniowe",52.223321,21.015453,"Grill",4,501055.569811822,5785877.19567666
"536","Restauracja belvedere, Œródmieœcie Po³udniowe",320,4.2,75,"Œródmieœcie po³udniowe",52.21722,21.03657,"Polska",1,502498.380735849,5785199.11723071
"537","Restauracja ministerstwo kawy, Œródmieœcie Po³udniowe",40,4.1,141,"Œródmieœcie po³udniowe",52.218651,21.018339,"Kawiarnia",1,501252.839278815,5785357.81135825
"538","Restauracja przegryŸ, Œródmieœcie Po³udniowe",90,3.9,92,"Œródmieœcie po³udniowe",52.225741,21.022089,"Polska",2,501508.782372217,5786146.48265012
"539","Restauracja tandoor, Œródmieœcie Po³udniowe",90,3.9,138,"Œródmieœcie po³udniowe",52.217008,21.019215,"Indyjska",1,501312.732157123,5785175.08093381
"540","Restauracja nolita, Œródmieœcie Po³udniowe",370,4.1,41,"Œródmieœcie po³udniowe",52.224418,21.012439,"Europejska",1,500849.667336451,5785999.17218928
"541","Restauracja zamieszanie, Œródmieœcie Po³udniowe",80,4.5,132,"Œródmieœcie po³udniowe",52.231392,21.022266,"Drinki",1,501520.679223368,5786775.03114962
"542","Restauracja varso vie, Œródmieœcie Po³udniowe",140,4,67,"Œródmieœcie po³udniowe",52.221629,21.017528,"Polska",1,501197.355260719,5785689.03172451
"543","Restauracja orzo people music nature, Œródmieœcie Po³udniowe",140,3.9,88,"Œródmieœcie po³udniowe",52.222319,21.015136,"Kawiarnia",3,501033.939317859,5785765.74158047
"544","Restauracja bekef, Œródmieœcie Po³udniowe",50,4.5,88,"Œródmieœcie po³udniowe",52.226834,21.015325,"Izraelska",2,501046.743726981,5786267.93467931
"545","Restauracja soto sushi, Œródmieœcie Po³udniowe",110,4.1,97,"Œródmieœcie po³udniowe",52.225356,21.017214,"Sushi",2,501175.807164147,5786103.56993326
"546","Restauracja amber room, Œródmieœcie Po³udniowe",350,4.3,73,"Œródmieœcie po³udniowe",52.221381,21.023949,"Polska",2,501635.989318623,5785661.57290062
"547","Restauracja batida, Œródmieœcie Po³udniowe",45,4.2,74,"Œródmieœcie po³udniowe",52.223098,21.014893,"Kawiarnia",2,501017.322200109,5785852.38403083
"548","Restauracja lazy dog, Œródmieœcie Po³udniowe",160,4.2,68,"Œródmieœcie po³udniowe",52.226292,21.018942,"Europejska",2,501293.811489097,5786207.70796325
"549","Restauracja ale gloria, Œródmieœcie Po³udniowe",190,3.8,122,"Œródmieœcie po³udniowe",52.227696,21.022734,"Polska",1,501552.770699553,5786363.94534198
"550","Restauracja bobby burger, Œródmieœcie Po³udniowe",50,2.4,129,"Œródmieœcie po³udniowe",52.228416,21.013982,"Burgery",2,500954.978834277,5786443.87750958
"551","Restauracja wilczy g³ód, Œródmieœcie Po³udniowe",90,3.9,63,"Œródmieœcie po³udniowe",52.224872,21.016321,"Œródziemnomorska",2,501114.822666724,5786049.72189927
"552","Restauracja flaming co, Œródmieœcie Po³udniowe",210,3.9,83,"Œródmieœcie po³udniowe",52.22288,21.021022,"Œródziemnomorska",2,501435.993551046,5785828.24024232
"553","Restauracja n31, Œródmieœcie Po³udniowe",150,4.4,47,"Œródmieœcie po³udniowe",52.228909,21.013699,"Polska",1,500935.639404244,5786498.70882062
"554","Restauracja port royal, Œródmieœcie Po³udniowe",100,3.9,70,"Œródmieœcie po³udniowe",52.231924,21.006727,"Ryby i owoce morza",1,500459.421849992,5786833.99178822
"555","Restauracja æma, Œródmieœcie Po³udniowe",100,4,59,"Œródmieœcie po³udniowe",52.222225,21.011329,"Miêdzynarodowa",1,500773.884994652,5785755.23876538
"556","Restauracja superiore, Œródmieœcie Po³udniowe",120,4.2,48,"Œródmieœcie po³udniowe",52.223568,21.016912,"W³oska",1,501155.225367215,5785904.6910152
"557","Restauracja wawpho, Œródmieœcie Po³udniowe",40,4,55,"Œródmieœcie po³udniowe",52.221394,21.010411,"Wietnamska",2,500711.189608033,5785662.79967971
"558","Restauracja lokanta, Œródmieœcie Po³udniowe",100,2.7,115,"Œródmieœcie po³udniowe",52.22776,21.008364,"Turecka",2,500571.274546077,5786370.85333654
"559","Restauracja kreperia, Œródmieœcie Po³udniowe",40,4,68,"Œródmieœcie po³udniowe",52.222086,21.011013,"Przek¹ski",1,500752.301355522,5785739.7748774
"560","Restauracja bambino bar, Œródmieœcie Po³udniowe",30,3.9,89,"Œródmieœcie po³udniowe",52.226865,21.017705,"Polska",1,501209.304062713,5786271.41975854
"561","Restauracja restauracja karma, Œródmieœcie Po³udniowe",94,3.8,33,"Œródmieœcie po³udniowe",52.228547,21.015492,"Indyjska",1,501058.10960875,5786458.46923872
"562","Restauracja om nom nom, Œródmieœcie Po³udniowe",100,3.5,62,"Œródmieœcie po³udniowe",52.229115,21.016933,"Japoñska",1,501156.515708133,5786521.66829473
"563","Restauracja cud miód, Œródmieœcie Po³udniowe",125,3.7,84,"Œródmieœcie po³udniowe",52.227547,21.006106,"Grill",3,500417.051538975,5786347.14655643
"564","Restauracja ring bell, Œródmieœcie Po³udniowe",100,3.8,45,"Œródmieœcie po³udniowe",52.229188,21.016864,"Europejska",2,501151.801152446,5786529.78678114
"565","Restauracja cupcake corner, Œródmieœcie Po³udniowe",30,3.7,64,"Œródmieœcie po³udniowe",52.221629,21.017528,"Kawiarnia",3,501197.355260719,5785689.03172451
"566","Restauracja san lorenzo, Œródmieœcie Po³udniowe",150,3.9,36,"Œródmieœcie po³udniowe",52.229071,21.017957,"W³oska",2,501226.455624622,5786516.79113082
"567","Restauracja beef n pepper, Œródmieœcie Po³udniowe",130,4,62,"Œródmieœcie po³udniowe",52.227989,21.009301,"Amerykañska",2,500635.269872718,5786396.33215683
"568","Restauracja qchnia artystyczna, Œródmieœcie Po³udniowe",200,3.1,83,"Œródmieœcie po³udniowe",52.219512,21.031058,"Europejska",3,502121.703996191,5785453.87383936
"569","Restauracja weranda bistro, Œródmieœcie Po³udniowe",100,3.5,65,"Œródmieœcie po³udniowe",52.2227,21.010143,"Miêdzynarodowa",1,500692.861837186,5785808.0596236
"570","Restauracja katmandu, Œródmieœcie Po³udniowe",85,3.8,97,"Œródmieœcie po³udniowe",52.225937,21.008465,"Nepalska",3,500578.196686692,5786168.08704227
"571","Restauracja ma³a gruzja, Œródmieœcie Po³udniowe",130,3.7,74,"Œródmieœcie po³udniowe",52.228562,21.010321,"Gruziñska",1,500704.928066742,5786460.07475907
"572","Restauracja s³ony, Œródmieœcie Po³udniowe",70,4,47,"Œródmieœcie po³udniowe",52.22349,21.01961,"Przek¹ski",2,501339.522771711,5785896.06172903
"573","Restauracja latawiec, Œródmieœcie Po³udniowe",50,3.9,51,"Œródmieœcie po³udniowe",52.217824,21.017826,"Kawiarnia",2,501217.816009193,5785265.81789908
"574","Restauracja wegemama, Œródmieœcie Po³udniowe",80,4.2,41,"Œródmieœcie po³udniowe",52.2187,21.019181,"Zdrowe jedzenie",1,501310.359548057,5785363.27636648
"575","Restauracja silk spicy, Œródmieœcie Po³udniowe",120,3.9,76,"Œródmieœcie po³udniowe",52.228117,21.013752,"Tajska",4,500939.276008529,5786410.61757841
"576","Restauracja laflaf, Œródmieœcie Po³udniowe",55,3.8,77,"Œródmieœcie po³udniowe",52.225377,21.014959,"Zdrowe jedzenie",2,501021.778266933,5786105.87152053
"577","Restauracja salto hotel rialto, Œródmieœcie Po³udniowe",280,4,38,"Œródmieœcie po³udniowe",52.22317,21.0081,"Ryby i owoce morza",3,500553.299973815,5785860.31878886
"578","Restauracja cucina popolare, Œródmieœcie Po³udniowe",110,4.1,43,"Œródmieœcie po³udniowe",52.223092,21.011785,"W³oska",2,500805.018717295,5785851.67760172
"579","Restauracja sucré, Œródmieœcie Po³udniowe",20,4.2,76,"Œródmieœcie po³udniowe",52.220261,21.018326,"Lodziarnia",1,501251.905906659,5785536.88661832
"580","Restauracja momencik, Œródmieœcie Po³udniowe",40,4.1,60,"Œródmieœcie po³udniowe",52.22518,21.012059,"Zdrowe jedzenie",2,500823.696681751,5786083.92286188
"581","Restauracja sobremesa tapas bar, Œródmieœcie Po³udniowe",100,4,35,"Œródmieœcie po³udniowe",52.231924,21.006727,"Miêdzynarodowa",1,500459.421849992,5786833.99178822
"582","Restauracja lalka, Œródmieœcie Po³udniowe",44,3.7,46,"Œródmieœcie po³udniowe",52.218651,21.018339,"Francuska",3,501252.839278815,5785357.81135825
"583","Restauracja jabeerwocky, Œródmieœcie Po³udniowe",50,4.1,67,"Œródmieœcie po³udniowe",52.229655,21.015937,"Drinki",2,501088.476184357,5786581.7155571
"584","Restauracja lowe, Œródmieœcie Po³udniowe",120,3.9,15,"Œródmieœcie po³udniowe",52.223617,21.012674,"Miêdzynarodowa",1,500865.7349936,5785910.0820657
"585","Restauracja piw paw, Œródmieœcie Po³udniowe",60,3.8,85,"Œródmieœcie po³udniowe",52.228416,21.013982,"Przek¹ski",1,500954.978834277,5786443.87750958
"586","Restauracja inazia hotel sheraton, Œródmieœcie Po³udniowe",240,4.1,28,"Œródmieœcie po³udniowe",52.231924,21.006727,"Tajska",3,500459.421849992,5786833.99178822
"587","Restauracja monique, Œródmieœcie Po³udniowe",80,3.7,35,"Œródmieœcie po³udniowe",52.229115,21.016933,"Kawiarnia",2,501156.515708133,5786521.66829473
"588","Restauracja chmielarnia, Œródmieœcie Po³udniowe",100,3.9,70,"Œródmieœcie po³udniowe",52.215453,21.020795,"Tajska",2,501420.724354678,5785002.15281697
"589","Restauracja nippon kan, Œródmieœcie Po³udniowe",110,3.9,36,"Œródmieœcie po³udniowe",52.22776,21.008364,"Japoñska",3,500571.274546077,5786370.85333654
"590","Restauracja czyli ¿urawia 45, Œródmieœcie Po³udniowe",80,3.9,49,"Œródmieœcie po³udniowe",52.2276,21.011797,"W³oska",1,500805.756819639,5786353.08959916
"591","Restauracja tomo sushi, Œródmieœcie Po³udniowe",200,3.7,71,"Œródmieœcie po³udniowe",52.226292,21.018942,"Sushi",1,501293.811489097,5786207.70796325
"592","Restauracja pacyfik, Œródmieœcie Po³udniowe",60,4.1,49,"Œródmieœcie po³udniowe",52.224547,21.007769,"Drinki",2,500530.673399477,5786013.47602206
"593","Restauracja krucza 23, Œródmieœcie Po³udniowe",45,3.7,31,"Œródmieœcie po³udniowe",52.227183,21.01771,"Kawiarnia",1,501209.636935739,5786306.79007651
"594","Restauracja karma, Œródmieœcie Po³udniowe",60,3.9,61,"Œródmieœcie po³udniowe",52.219583,21.017207,"Europejska",2,501175.481446101,5785461.45596543
"595","Restauracja ch³opskie jad³o, Œródmieœcie Po³udniowe",120,2.8,58,"Œródmieœcie po³udniowe",52.221363,21.016404,"Polska",1,501120.580388989,5785659.42735952
"596","Restauracja loco mexicano, Œródmieœcie Po³udniowe",100,3.9,29,"Œródmieœcie po³udniowe",52.216533,21.019649,"Tex-Mex",1,501342.396528852,5785122.2560763
"597","Restauracja drugie dno, Œródmieœcie Po³udniowe",60,4.4,40,"Œródmieœcie po³udniowe",52.230154,21.018289,"Drinki",3,501249.100691854,5786637.25585972
"598","Restauracja etno cafe, Œródmieœcie Po³udniowe",40,4.2,46,"Œródmieœcie po³udniowe",52.227745,21.012464,"Kawiarnia",1,500851.311374242,5786369.22516228
"599","Restauracja kiti, Œródmieœcie Po³udniowe",90,4.2,43,"Œródmieœcie po³udniowe",52.225412,21.019268,"Drinki",1,501316.104561208,5786109.83395753
"600","Restauracja witaly, Œródmieœcie Po³udniowe",95,3.8,18,"Œródmieœcie po³udniowe",52.231924,21.006727,"Europejska",2,500459.421849992,5786833.99178822
"601","Restauracja krem, Œródmieœcie Po³udniowe",40,4,39,"Œródmieœcie po³udniowe",52.220647,21.013157,"Kawiarnia",2,500898.787692156,5785579.74357435
"602","Restauracja plan b, Œródmieœcie Po³udniowe",60,4,68,"Œródmieœcie po³udniowe",52.219984,21.018668,"Przek¹ski",2,501275.276921395,5785506.0826946
"603","Restauracja instalacje, Œródmieœcie Po³udniowe",120,3.8,25,"Œródmieœcie po³udniowe",52.219512,21.031058,"Europejska",2,502121.703996191,5785453.87383936
"604","Restauracja dubrovnik, Œródmieœcie Po³udniowe",100,2.5,60,"Œródmieœcie po³udniowe",52.229301,21.014168,"Ba³kañska",1,500967.663503001,5786542.31603772
"605","Restauracja la vanille, Œródmieœcie Po³udniowe",30,3.9,57,"Œródmieœcie po³udniowe",52.226292,21.018942,"Desery",1,501293.811489097,5786207.70796325
"606","Restauracja semolino, Œródmieœcie Po³udniowe",80,3.8,47,"Œródmieœcie po³udniowe",52.231924,21.006727,"W³oska",2,500459.421849992,5786833.99178822
"607","Restauracja dom zabawy i kultury dzik, Œródmieœcie Po³udniowe",50,3.8,34,"Œródmieœcie po³udniowe",52.20978,21.028698,"Œródziemnomorska",2,501960.910856927,5784371.34704654
"608","Restauracja weles, Œródmieœcie Po³udniowe",120,4.1,50,"Œródmieœcie po³udniowe",52.229108,21.017769,"Przek¹ski",1,501213.614294115,5786520.90337252
"609","Restauracja spiskowcy rozkoszy, Œródmieœcie Po³udniowe",50,3.1,71,"Œródmieœcie po³udniowe",52.227495,21.011344,"Drinki",2,500774.817913471,5786341.40580806
"610","Restauracja gemba, Œródmieœcie Po³udniowe",70,3.8,36,"Œródmieœcie po³udniowe",52.224235,21.011703,"Polska",2,500799.396874148,5785978.80925778
"611","Restauracja warszawski lukier, Œródmieœcie Po³udniowe",40,3.8,39,"Œródmieœcie po³udniowe",52.227514,21.020804,"Desery",2,501420.954242711,5786343.66240881
"612","Restauracja ho¿a, Œródmieœcie Po³udniowe",230,4,33,"Œródmieœcie po³udniowe",52.226617,21.016686,"Amerykañska",3,501139.709687826,5786243.81891487
"613","Restauracja ole tapas bar, Œródmieœcie Po³udniowe",200,3.9,45,"Œródmieœcie po³udniowe",52.229649,21.020935,"Hiszpañska",2,501429.833214429,5786581.13501778
"614","Restauracja gringobar salsownia, Œródmieœcie Po³udniowe",70,4,50,"Œródmieœcie po³udniowe",52.231924,21.006727,"Tex-Mex",2,500459.421849992,5786833.99178822
"615","Restauracja oishii sushi, Œródmieœcie Po³udniowe",100,3.9,40,"Œródmieœcie po³udniowe",52.223801,21.008272,"Sushi",2,500565.041050661,5785930.50440731
"616","Restauracja pho, Œródmieœcie Po³udniowe",40,2.7,25,"Œródmieœcie po³udniowe",52.221329,21.018763,"Wietnamska",2,501281.727985449,5785655.68472784
"617","Restauracja loving hut, Œródmieœcie Po³udniowe",50,3.6,44,"Œródmieœcie po³udniowe",52.219159,21.015092,"Wietnamska",3,501031.006854157,5785414.26352674
"618","Restauracja vegan pizza, Œródmieœcie Po³udniowe",70,3.8,50,"Œródmieœcie po³udniowe",52.223986,21.01233,"Pizza",1,500842.230076741,5785951.1208101
"619","Restauracja siewcy smaku, Œródmieœcie Po³udniowe",80,4,41,"Œródmieœcie po³udniowe",52.231924,21.006727,"Polska",2,500459.421849992,5786833.99178822
"620","Restauracja green caffe nero, Œródmieœcie Po³udniowe",45,3.8,42,"Œródmieœcie po³udniowe",52.228801,21.013085,"Kawiarnia",1,500893.705475869,5786486.68853626
"621","Restauracja sheesha lounge, Œródmieœcie Po³udniowe",120,3.7,49,"Œródmieœcie po³udniowe",52.229565,21.014003,"Arabska",1,500956.388457147,5786571.67782826
"622","Restauracja matcha tea house, Œródmieœcie Po³udniowe",40,3.8,40,"Œródmieœcie po³udniowe",52.219189,21.017869,"Kawiarnia",2,501220.716210082,5785417.64346525
"623","Restauracja kieliszki na ho¿ej, Œródmieœcie Po³udniowe",100,4.1,20,"Œródmieœcie po³udniowe",52.225597,21.011913,"Miêdzynarodowa",1,500813.716448166,5786130.30292291
"624","Restauracja pó³noc po³udnie, Œródmieœcie Po³udniowe",100,3.9,30,"Œródmieœcie po³udniowe",52.213968,21.023271,"Europejska",1,501589.938876281,5784837.03225428
"625","Restauracja pini cafe vino, Œródmieœcie Po³udniowe",60,3.6,40,"Œródmieœcie po³udniowe",52.220425,21.018131,"Kawiarnia",2,501238.580289572,5785555.12450093
"626","Restauracja asia anh, Œródmieœcie Po³udniowe",50,3.7,22,"Œródmieœcie po³udniowe",52.224782,21.015784,"Tajska",4,501078.144510203,5786039.70333633
"627","Restauracja wiesz co zjesz, Œródmieœcie Po³udniowe",90,3.9,21,"Œródmieœcie po³udniowe",52.221363,21.016404,"Zdrowe jedzenie",2,501120.580388989,5785659.42735952
"628","Restauracja bierhalle, Œródmieœcie Po³udniowe",110,2.9,43,"Œródmieœcie po³udniowe",52.224236,21.01443,"Polska",2,500985.670052504,5785978.95406187
"629","Restauracja organic coffee, Œródmieœcie Po³udniowe",45,3.9,30,"Œródmieœcie po³udniowe",52.223276,21.017569,"Kawiarnia",2,501200.111612864,5785872.22338025
"630","Restauracja arirang, Œródmieœcie Po³udniowe",120,3.7,21,"Œródmieœcie po³udniowe",52.2286,21.010977,"Koreañska",3,500749.732465941,5786464.30797456
"631","Restauracja pod gigantami, Œródmieœcie Po³udniowe",230,3.8,42,"Œródmieœcie po³udniowe",52.226985,21.023574,"Polska",1,501610.169840877,5786284.88115981
"632","Restauracja la torre, Œródmieœcie Po³udniowe",85,2.7,39,"Œródmieœcie po³udniowe",52.226278,21.021586,"Pizza",1,501474.407324973,5786206.2012699
"633","Restauracja edamame vegan sushi, Œródmieœcie Po³udniowe",80,3.9,26,"Œródmieœcie po³udniowe",52.225706,21.020077,"Sushi",1,501371.354408839,5786142.54972902
"634","Restauracja fast good, Œródmieœcie Po³udniowe",50,3.8,27,"Œródmieœcie po³udniowe",52.219176,21.013622,"Burgery",2,500930.583753812,5785416.13449749
"635","Restauracja pasta mia, Œródmieœcie Po³udniowe",60,3.6,50,"Œródmieœcie po³udniowe",52.214692,21.021299,"W³oska",1,501455.182743054,5784917.51912325
"636","Restauracja metr nad ziemi¹, Œródmieœcie Po³udniowe",70,3.7,27,"Œródmieœcie po³udniowe",52.2286,21.010977,"Europejska",1,500749.732465941,5786464.30797456
"637","Restauracja art sushi, Œródmieœcie Po³udniowe",180,3.6,42,"Œródmieœcie po³udniowe",52.22772,21.00679,"Sushi",3,500463.768251419,5786366.39301193
"638","Restauracja cophi, Œródmieœcie Po³udniowe",30,4.2,32,"Œródmieœcie po³udniowe",52.225772,21.011386,"Kawiarnia",1,500777.71670081,5786149.76188523
"639","Restauracja delizia, Œródmieœcie Po³udniowe",170,3.6,46,"Œródmieœcie po³udniowe",52.225772,21.011386,"W³oska",1,500777.71670081,5786149.76188523
"640","Restauracja na koñcu t?czy beige, Œródmieœcie Po³udniowe",30,4.1,32,"Œródmieœcie po³udniowe",52.219661,21.018673,"Lodziarnia",1,501275.627743103,5785470.1564564
"641","Restauracja izumi sushi, Œródmieœcie Po³udniowe",170,3.7,46,"Œródmieœcie po³udniowe",52.21961,21.01777,"Sushi",2,501213.941571749,5785464.46837322
"642","Restauracja bez tytu³u, Œródmieœcie Po³udniowe",100,3.9,28,"Œródmieœcie po³udniowe",52.22518,21.012059,"Miêdzynarodowa",1,500823.696681751,5786083.92286188
"643","Restauracja cofeina, Œródmieœcie Po³udniowe",40,3.5,38,"Œródmieœcie po³udniowe",52.219815,21.013043,"Kawiarnia",2,500891.016716276,5785487.20128267
"644","Restauracja warszawski sen, Œródmieœcie Po³udniowe",150,3.9,23,"Œródmieœcie po³udniowe",52.222225,21.011329,"Polska",1,500773.884994652,5785755.23876538
"645","Restauracja mango vegan street food, Œródmieœcie Po³udniowe",50,3.8,38,"Œródmieœcie po³udniowe",52.231924,21.006727,"Zdrowe jedzenie",1,500459.421849992,5786833.99178822
"646","Restauracja bagatela z klimatem, Œródmieœcie Po³udniowe",120,3.4,7,"Œródmieœcie po³udniowe",52.213953,21.022699,"Polska",1,501550.858782209,5784835.35146054
"647","Restauracja dyspensa, Œródmieœcie Po³udniowe",190,3.7,33,"Œródmieœcie po³udniowe",52.222635,21.019532,"Polska",3,501334.220360358,5785800.96113946
"648","Restauracja leniwa gospodyni, Œródmieœcie Po³udniowe",40,3.6,26,"Œródmieœcie po³udniowe",52.220191,21.013513,"Polska",1,500923.116400011,5785529.02852315
"649","Restauracja burger bar, Œródmieœcie Po³udniowe",70,3.8,28,"Œródmieœcie po³udniowe",52.229115,21.016933,"Burgery",1,501156.515708133,5786521.66829473
"650","Restauracja kawka z kotem, Œródmieœcie Po³udniowe",50,3.5,15,"Œródmieœcie po³udniowe",52.22236,21.01773,"Kawiarnia",1,501211.134196848,5785770.34205914
"651","Restauracja mojo picón, Œródmieœcie Po³udniowe",70,3.7,18,"Œródmieœcie po³udniowe",52.223577,21.012496,"Hiszpañska",2,500853.576945007,5785905.63087124
"652","Restauracja temari, Œródmieœcie Po³udniowe",100,3.8,23,"Œródmieœcie po³udniowe",52.218663,21.01751,"Sushi",2,501196.205347512,5785359.13207919
"653","Restauracja kie³ba w g?bie, Œródmieœcie Po³udniowe",40,3.7,25,"Œródmieœcie po³udniowe",52.231924,21.006727,"Polska",1,500459.421849992,5786833.99178822
"654","Restauracja thai style, Œródmieœcie Po³udniowe",70,3.8,22,"Œródmieœcie po³udniowe",52.221085,21.011004,"Tajska",1,500751.703463776,5785628.43650661
"655","Restauracja tarantino, Œródmieœcie Po³udniowe",70,2.5,25,"Œródmieœcie po³udniowe",52.228287,21.014256,"Drinki",2,500973.696017531,5786429.5328489
"656","Restauracja bar z³ota kurka, Œródmieœcie Po³udniowe",30,2.4,25,"Œródmieœcie po³udniowe",52.224236,21.01443,"Polska",1,500985.670052504,5785978.95406187
"657","Restauracja four seasons, Œródmieœcie Po³udniowe",110,3.2,25,"Œródmieœcie po³udniowe",52.226398,21.015359,"Wietnamska",1,501049.076305106,5786219.44013551
"658","Restauracja radio cafe, Œródmieœcie Po³udniowe",70,3.3,25,"Œródmieœcie po³udniowe",52.227713,21.006803,"Polska",3,500464.656246034,5786365.61450502
"659","Restauracja someplace else hotel sheraton, Œródmieœcie Po³udniowe",150,3.6,19,"Œródmieœcie po³udniowe",52.231924,21.006727,"Miêdzynarodowa",2,500459.421849992,5786833.99178822
"660","Restauracja lider kebab, Œródmieœcie Po³udniowe",35,2.3,21,"Œródmieœcie po³udniowe",52.223734,21.015913,"Kebab",1,501086.981594617,5785923.13926155
"661","Restauracja culiinaria, Œródmieœcie Po³udniowe",100,3.8,20,"Œródmieœcie po³udniowe",52.225597,21.010842,"W³oska",1,500740.561884809,5786130.29144063
"662","Restauracja momento pizza, Œródmieœcie Po³udniowe",70,3.2,34,"Œródmieœcie po³udniowe",52.220425,21.011807,"Pizza",2,500806.569825928,5785555.03529437
"663","Restauracja pizza przy politechnice, Œródmieœcie Po³udniowe",50,3.3,37,"Œródmieœcie po³udniowe",52.221282,21.010514,"Pizza",1,500718.227485286,5785650.34326609
"664","Restauracja nowo, Œródmieœcie Po³udniowe",100,3.9,17,"Œródmieœcie po³udniowe",52.229801,21.016565,"Miêdzynarodowa",1,501131.364048635,5786597.96434537
"665","Restauracja fabryka frytek, Œródmieœcie Po³udniowe",20,3.6,31,"Œródmieœcie po³udniowe",52.220683,21.015183,"Fast Food",1,501037.187997718,5785583.77480083
"666","Restauracja pizzeria napoli, Œródmieœcie Po³udniowe",80,3.4,36,"Œródmieœcie po³udniowe",52.223725,21.00966,"Pizza",1,500659.853223654,5785922.06287534
"667","Restauracja bistro paris, Œródmieœcie Po³udniowe",100,3.2,14,"Œródmieœcie po³udniowe",52.214692,21.021299,"Francuska",1,501455.182743054,5784917.51912325
"668","Restauracja soul food, Œródmieœcie Po³udniowe",50,3.5,22,"Œródmieœcie po³udniowe",52.231924,21.006727,"Burgery",2,500459.421849992,5786833.99178822
"669","Restauracja street sushi grabgo, Œródmieœcie Po³udniowe",40,3.7,16,"Œródmieœcie po³udniowe",52.230052,21.017053,"Azjatycka",2,501164.687130333,5786625.89010378
"670","Restauracja zmiana klimatu, Œródmieœcie Po³udniowe",120,3.6,14,"Œródmieœcie po³udniowe",52.225847,21.019203,"Œródziemnomorska",1,501311.651905681,5786158.21657917
"671","Restauracja urban burritos, Œródmieœcie Po³udniowe",60,3.7,20,"Œródmieœcie po³udniowe",52.24771,21.187556,"Tex-Mex",1,512804.625938842,5788606.37675865
"672","Restauracja ? nouche, Œródmieœcie Po³udniowe",40,3.3,19,"Œródmieœcie po³udniowe",52.218663,21.01751,"Kawiarnia",3,501196.205347512,5785359.13207919
